"Airport","Origin","Lat","Long"
"Goroka","GKA",-6.081689,145.391881
"Madang","MAG",-5.207083,145.7887
"Mount Hagen","HGU",-5.826789,144.295861
"Nadzab","LAE",-6.569828,146.726242
"Port Moresby","POM",-9.443383,147.22005
"Wewak","WWK",-3.583828,143.669186
"Narssarssuaq","UAK",61.160517,-45.425978
"Godthaab","GOH",64.190922,-51.678064
"Sondrestrom","SFJ",67.016969,-50.689325
"Thule","THU",76.531203,-68.703161
"Akureyri","AEY",65.659994,-18.072703
"Egilsstadir","EGS",65.283333,-14.401389
"Hofn","HFN",64.295556,-15.227222
"Husavik","HZK",65.952328,-17.425978
"Isafjordur","IFJ",66.058056,-23.135278
"Keflavik","KEF",63.985,-22.605556
"Patreksfjordur","PFJ",65.555833,-23.965
"Reykjavik","RKV",64.13,-21.940556
"Siglufjordur","SIJ",66.133333,-18.916667
"Vestmannaeyjar","VEY",63.424303,-20.278875
"Sault Sainte Marie","YAM",46.485001,-84.509445
"Winnipeg","YAV",50.056389,-97.0325
"Halifax","YAW",44.639721,-63.499444
"St. Anthony","YAY",51.391944,-56.083056
"Tofino","YAZ",49.082222,-125.7725
"Pelly Bay","YBB",68.534444,-89.808056
"Baie Comeau","YBC",49.1325,-68.204444
"Bagotville","YBG",48.330555,-70.996391
"Baker Lake","YBK",64.298889,-96.077778
"Campbell River","YBL",49.950832,-125.270833
"Brandon","YBR",49.91,-99.951944
"Cambridge Bay","YCB",69.108055,-105.138333
"Nanaimo","YCD",49.052333,-123.870167
"Castlegar","YCG",49.296389,-117.6325
"Chatham","YCH",47.007778,-65.449167
"Charlo","YCL",47.990833,-66.330278
"Coppermine","YCO",67.816667,-115.143889
"Coronation","YCT",52.075001,-111.445278
"Chilliwack","YCW",49.152779,-121.93889
"Clyde River","YCY",70.486111,-68.516667
"Coral Harbour","YZS",64.193333,-83.359444
"Dawson","YDA",64.043056,-139.127778
"Burwash","YDB",61.371111,-139.040556
"Princeton","YDC",49.468056,-120.511389
"Deer Lake","YDF",49.210833,-57.391388
"Dease Lake","YDL",58.422222,-130.032222
"Dauphin","YDN",51.100834,-100.0525
"Dawson Creek","YDQ",55.742333,-120.183
"Edmonton","YEG",53.309723,-113.579722
"Eskimo Point","YEK",61.094166,-94.070833
"Estevan","YEN",49.210278,-102.965833
"Edson","YET",53.578888,-116.465
"Eureka","YEU",79.994722,-85.814167
"Inuvik","YEV",68.304167,-133.482778
"Iqaluit","YFB",63.75639,-68.555832
"Fredericton","YFC",45.868889,-66.537222
"Forestville","",48.746111,-69.097222
"Flin Flon","YFO",54.678055,-101.681667
"Fort Resolution","YFR",61.180832,-113.689722
"Fort Simpson","YFS",61.760153,-121.236525
"Kingston","YGK",44.225277,-76.596944
"La Grande Riviere","YGL",53.625278,-77.704167
"Gaspe","YGP",48.775278,-64.478611
"Geraldton","YGQ",49.778332,-86.939445
"Iles De La Madeleine","YGR",47.424721,-61.778056
"Hudson Bay","YHB",52.816666,-102.31139
"Dryden","YHD",49.831667,-92.744167
"Holman Island","YHI",70.762778,-117.806111
"Gjoa Haven","YHK",68.635556,-95.849722
"Hamilton","YHM",43.173611,-79.935
"Montreal","YHU",45.5175,-73.416944
"Hay River","YHY",60.839722,-115.782778
"Halifax","YHZ",44.880833,-63.50861
"Atikokan","YIB",48.773888,-91.638611
"Pond Inlet","YIO",72.683334,-77.966667
"St. Jean","YJN",45.294445,-73.281111
"Stephenville","YJT",48.544167,-58.549999
"Kamloops","YKA",50.702222,-120.444444
"Waterloo","YKF",43.460833,-80.378611
"Schefferville","YKL",54.805278,-66.805278
"Kindersley","YKY",51.5175,-109.180833
"Toronto","YKZ",43.862221,-79.37
"Chapleau","YLD",47.82,-83.346667
"Meadow Lake","YLJ",54.125278,-108.522778
"Lloydminster","YLL",53.309166,-110.0725
"Alert","YLT",82.517778,-62.280556
"Kelowna","YLW",49.956112,-119.377778
"Mayo","YMA",63.616389,-135.868333
"Moose Jaw","YMJ",50.330278,-105.559167
"Fort Mcmurray","YMM",56.653333,-111.221944
"Moosonee","YMO",51.291111,-80.607778
"Maniwaki","YMW",46.272778,-75.990556
"Montreal","YMX",45.681944,-74.005278
"Natashquan","YNA",50.19,-61.789167
"Gatineau","YND",45.521694,-75.563589
"Matagami","YNM",49.761667,-77.802778
"Old Crow","YOC",67.570556,-139.839167
"Cold Lake","YOD",54.404999,-110.279444
"High Level","YOJ",58.621389,-117.164722
"Ottawa","YOW",45.3225,-75.669167
"Prince Albert","YPA",53.214167,-105.672778
"Peace River","YPE",56.226944,-117.447222
"Portage-la-prairie","YPG",49.903056,-98.273889
"Pitt Meadows","",49.21611,-122.71
"Pickle Lake","YPL",51.446388,-90.214167
"Port Menier","YPN",49.836389,-64.288611
"Peterborough","YPQ",44.23,-78.363333
"Prince Pupert","YPR",54.28611,-130.444722
"Fort Chipewyan","YPY",58.767223,-111.117222
"Muskoka","YQA",44.974722,-79.303333
"Quebec","YQB",46.791111,-71.393333
"Red Deer Industrial","YQF",52.182222,-113.894444
"Windsor","YQG",42.275556,-82.955556
"Watson Lake","YQH",60.116389,-128.8225
"Kenora","YQK",49.788334,-94.363056
"Lethbridge","YQL",49.630278,-112.799722
"Moncton","YQM",46.112221,-64.678611
"Comox","YQQ",49.710833,-124.886667
"Regina","YQR",50.431944,-104.665833
"Thunder Bay","YQT",48.371944,-89.323889
"Grande Prairie","YQU",55.179722,-118.885
"Yorkton","YQV",51.264721,-102.461667
"North Battleford","YQW",52.769167,-108.24361
"Gander","YQX",48.936944,-54.568056
"Sydney","YQY",46.161388,-60.047779
"Quesnel","YQZ",53.026112,-122.510278
"Resolute","YRB",74.716944,-94.969444
"Riviere Du Loup","YRI",47.764444,-69.584722
"Roberval","YRJ",48.52,-72.265556
"Rocky Mountain House","YRM",52.429722,-114.904167
"Rankin Inlet","YRT",62.81139,-92.115833
"Sudbury","YSB",46.625,-80.798889
"Sherbrooke","YSC",45.438611,-71.691389
"St. John","YSJ",45.316111,-65.890278
"Fort Smith","YSM",60.020278,-111.961944
"Nanisivik","YSR",72.982222,-84.613611
"Summerside","YSU",46.440556,-63.833611
"Sachs Harbour","YSY",71.993889,-125.2425
"Cape Dorset","YTE",64.23,-76.526667
"Thompson","YTH",55.801111,-97.864166
"Trenton","YTR",44.118889,-77.528056
"Timmins","YTS",48.569721,-81.376667
"Toronto","YTZ",43.627499,-79.396167
"Tuktoyaktuk","YUB",69.433334,-133.026389
"Montreal","YUL",45.470556,-73.740833
"Repulse Bay","YUT",66.521389,-86.224722
"Hall Beach","YUX",68.776111,-81.243611
"Rouyn","YUY",48.206111,-78.835556
"La Ronge","YVC",55.15139,-105.261944
"Vermillion","YVG",53.355833,-110.82389
"Broughton Island","YVM",67.545833,-64.031389
"Val D'or","YVO",48.053333,-77.782778
"Quujjuaq","YVP",58.096111,-68.426944
"Norman Wells","YVQ",65.281617,-126.798219
"Vancouver","YVR",49.193889,-123.184444
"Buffalo Narrows","YVT",55.841944,-108.4175
"Wiarton","YVV",44.745834,-81.107222
"Petawawa","YWA",45.952221,-77.319168
"Winnipeg","YWG",49.910036,-97.239886
"Wabush","YWK",52.921944,-66.864444
"Williams Lake","YWL",52.183056,-122.054167
"Wrigley","YWY",63.209444,-123.436667
"Cranbrook","YXC",49.612222,-115.781944
"Edmonton","YXD",53.5725,-113.520556
"Saskatoon","YXE",52.170834,-106.699722
"Medicine Hat","YXH",50.01889,-110.720833
"Fort Saint John","YXJ",56.238056,-120.740278
"Sioux Lookout","YXL",50.113889,-91.905278
"Pangnirtung","YXP",66.145,-65.713611
"Earlton","YXR",47.695,-79.848889
"Prince George","YXS",53.889444,-122.678889
"Terrace","YXT",54.468508,-128.576219
"London","YXU",43.033056,-81.151111
"Abbotsford","YXX",49.025278,-122.360556
"Whitehorse","YXY",60.709553,-135.067269
"North Bay","YYB",46.363611,-79.422778
"Calgary","YYC",51.113888,-114.020278
"Smithers","YYD",54.824722,-127.182778
"Fort Nelson","YYE",58.836389,-122.596944
"Penticton","YYF",49.463056,-119.602222
"Charlottetown","YYG",46.290001,-63.121111
"Spence Bay","YYH",69.546667,-93.576667
"Victoria","YYJ",48.646944,-123.425833
"Lynn Lake","YYL",56.863888,-101.07611
"Swift Current","YYN",50.291944,-107.690556
"Churchill","YYQ",58.739167,-94.065
"Goose Bay","YYR",53.319168,-60.425833
"St. John's","YYT",47.61861,-52.751945
"Kapuskasing","YYU",49.413889,-82.4675
"Armstrong","YYW",50.290279,-88.909721
"Mont Joli","YYY",48.608612,-68.208056
"Toronto","YYZ",43.677223,-79.630556
"Toronto","YZD",43.7425,-79.465556
"Gore Bay","YZE",45.885277,-82.567778
"Yellowknife","YZF",62.462778,-114.440278
"Slave Lake","YZH",55.293056,-114.777222
"Sandspit","YZP",53.254333,-131.813833
"Sarnia","YZR",42.999444,-82.308889
"Port Hardy","YZT",50.680556,-127.366667
"Whitecourt","YZU",54.14389,-115.786667
"Sept-iles","YZV",50.223333,-66.265556
"Teslin","YZW",60.172779,-132.742778
"Greenwood","YZX",44.984444,-64.916944
"Faro","ZFA",62.2075,-133.375833
"Fort Mcpherson","ZFM",67.4075,-134.860556
"Blida","",36.503613,2.814167
"Bou Saada","",35.3325,4.206389
"Bejaja","BJA",36.711997,5.069922
"Algier","ALG",36.691014,3.215408
"Djanet","DJG",24.292767,9.452444
"Boufarik","QFD",36.545834,2.876111
"Reggan","",26.710103,0.285647
"Illizi","VVZ",26.723536,8.622653
"Ain Oussera","",35.525414,2.878714
"Tamanrasset","TMR",22.811461,5.451075
"Jijel","GJL",36.795136,5.873608
"Mecheria","",33.535853,-0.242353
"Relizane","",35.752239,0.626272
"Annaba","AAE",36.822225,7.809167
"Constantine","CZL",36.276028,6.620386
"Tebessa","TEE",35.431611,8.120717
"Tilrempt","HRM",32.930431,3.311542
"Tiaret","TID",35.341136,1.463147
"Bou Sfer","",35.735389,-0.805389
"Tindouf","TIN",27.700372,-8.167103
"Ech-cheliff","QAS",36.212658,1.331775
"Oran","TAF",35.542444,-0.532278
"Tlemcen","TLM",35.016667,-1.45
"Oran","ORN",35.623858,-0.621183
"Sidi Bel Abbes","",35.171775,-0.593275
"Ghriss","MUW",35.207725,0.147142
"Adrar","AZR",27.837589,-0.186414
"Biskra","BSK",34.793289,5.738231
"El Golea","ELG",30.571294,2.859586
"Ghardaia","GHA",32.384106,3.794114
"Hassi Messaoud","HME",31.672972,6.140444
"In Salah","INZ",27.251022,2.512017
"Touggourt","TGR",33.067803,6.088672
"Laghouat","LOO",33.764383,2.928344
"Timimoun","TMX",29.237119,0.276033
"Ouargla","OGX",31.917223,5.412778
"Zarzaitine","IAM",28.05155,9.642911
"Cotonou","COO",6.357228,2.384353
"Ouagadougou","OUA",12.353194,-1.512417
"Bobo-dioulasso","BOY",11.160056,-4.330969
"Accra","ACC",5.605186,-0.166786
"Tamale","TML",9.557192,-0.863214
"Wa","",10.082664,-2.507694
"Sunyani","NYI",7.361828,-2.328756
"Takoradi","TKD",4.896056,-1.774756
"Abidjan","ABJ",5.261386,-3.926294
"Bouake","BYK",7.7388,-5.073667
"Daloa","DJO",6.792808,-6.473189
"Korhogo","HGO",9.387183,-5.556664
"Man","MJC",7.272069,-7.587364
"San Pedro","SPY",4.746717,-6.660817
"Yamoussoukro","ASK",6.903167,-5.365581
"Abuja","ABV",9.006792,7.263172
"Akure","AKR",7.246739,5.301008
"Benin","BNI",6.316981,5.599503
"Calabar","CBQ",4.976019,8.347197
"Enugu","ENU",6.474272,7.561961
"Gusau","QUS",12.171667,6.696111
"Ibadan","IBA",7.362458,3.978333
"Ilorin","ILR",8.440211,4.493919
"Jos","JOS",9.639828,8.86905
"Kaduna","KAD",10.696025,7.320114
"Kano","KAN",12.047589,8.524622
"Maiduguri","MIU",11.855347,13.08095
"Makurdi","MDI",7.703883,8.613939
"Lagos","LOS",6.577369,3.321156
"Minna","MXJ",9.652172,6.462256
"Port Hartcourt","PHC",5.015494,6.949594
"Sokoto","SKO",12.916322,5.207189
"Yola","YOL",9.257553,12.430422
"Zaria","ZAR",11.130192,7.685806
"Maradi","MFQ",13.502531,7.126753
"Niamey","NIM",13.481547,2.183614
"Tahoua","THZ",14.875658,5.265358
"Agadez","AJY",16.965997,8.000114
"Dirkou","",18.968703,12.86865
"Diffa","",13.372894,12.626686
"Zinder","ZND",13.778997,8.983761
"Monastir","MIR",35.758056,10.754722
"Tunis","TUN",36.851033,10.227217
"Bizerte","",37.245447,9.791453
"Remada","",32.306156,10.382108
"Gafsa","GAF",34.422022,8.822503
"Gabes","GAE",33.876919,10.103333
"Bordj El Amri","",36.721339,9.943147
"Djerba","DJE",33.875031,10.775461
"El Borma","EBM",31.704281,9.254619
"Sfax","SFA",34.717953,10.690972
"Tozeur","TOE",33.939722,8.110556
"Niatougou","LRL",9.767333,1.09125
"Lome","LFW",6.165611,1.254511
"Antwerp","ANR",51.189444,4.460278
"Beauvechain","",50.75861,4.768333
"Kleine Brogel","",51.168333,5.47
"Brussels","BRU",50.901389,4.484444
"Bertrix","",49.891667,5.223889
"Charleroi","CRL",50.459197,4.453817
"Chievres","",50.575833,3.831
"Koksijde","",51.090278,2.652778
"Florennes","",50.243333,4.645833
"Kortrijk-vevelgem","QKT",50.817222,3.204722
"Liege","LGG",50.637417,5.443222
"Ostend","OST",51.198889,2.862222
"Zutendaal","",50.9475,5.590556
"Sint-truiden","",50.791944,5.201667
"St.-hubert","",50.035833,5.404167
"Ursel","",51.144133,3.474361
"Weelde","",51.394783,4.960194
"Zoersel","",51.264722,4.753333
"Bautzen","BBJ",51.193531,14.519747
"Altenburg","AOC",50.981817,12.506361
"Dessau","",51.831828,12.184033
"Eisenhuettenstadt","",52.197333,14.585667
"Greencastle","4I7",39.6335556,-86.8138056
"Suhl","",51.308111,13.554973
"Muehlhausen","",51.363,11.940833
"Halle","",51.552,12.052667
"Riesa","",51.2935,13.356
"Rechlin-laerz","",53.306417,12.753139
"Strausberg","",52.579978,13.915683
"Schoenhagen","",52.203258,13.158408
"Barth","BBH",54.33754,12.699705
"Jena","",50.915161,11.714519
"Kyritz","",52.918833,12.425333
"Magdeburg","",52.073658,11.626467
"Rothenburg/ol","",51.363167,14.95
"Anklam","",53.8327,13.669131
"Cottbus","",51.889475,14.531986
"Kamenz","",51.29625,14.129
"Berlin","SXF",52.380001,13.5225
"Dresden","DRS",51.132767,13.767161
"Erfurt","ERF",50.979811,10.958106
"Frankfurt","FRA",50.026421,8.543125
"Munster","FMO",52.134642,7.684831
"Hamburg","HAM",53.630389,9.988228
"Berlin","THF",52.473025,13.403944
"Cologne","CGN",50.865917,7.142744
"Duesseldorf","DUS",51.289453,6.766775
"Munich","MUC",48.353783,11.786086
"Nuernberg","NUE",49.4987,11.066897
"Leipzig","LEJ",51.432447,12.241633
"Saarbruecken","SCN",49.214553,7.109508
"Stuttgart","STR",48.689878,9.221964
"Berlin","TXL",52.559686,13.287711
"Hannover","HAJ",52.461056,9.685078
"Bremen","BRE",53.0475,8.786667
"Egelsbach","",49.960833,8.6415
"Hahn","HHN",49.948672,7.263892
"Mannheim","MHG",49.472706,8.514264
"Allendorf","",51.034878,8.680839
"Worms","",49.606511,8.3684
"Mainz","",49.968931,8.148336
"Eisenach","",50.992797,10.472711
"Siegerland","",50.707658,8.082969
"Hamburg","XFW",53.535886,9.837025
"Kiel","KEL",54.3795,10.145167
"Luebeck","LBC",53.805367,10.719222
"Dahlemer Binz","",50.405888,6.528083
"Meinerzhagen","",51.099445,7.601944
"Arnsberg","ZCA",51.483333,7.899333
"Essen","ESS",51.402333,6.937333
"Bielefeld","",51.964833,8.544833
"Moenchengladbach","MGL",51.230356,6.504494
"Paderborn","PAD",51.614089,8.616317
"Stadtlohn","",51.995844,6.840667
"Dortmund","DTM",51.518314,7.612242
"Augsburg","AGB",48.425158,10.931764
"Biberach","",48.111,9.762833
"Eggenfelden","",48.396167,12.723667
"Mindelheim","",48.108833,10.524333
"Oberpfaffenhofen","OBF",48.081364,11.283067
"Straubing","",48.90095,12.518186
"Vilshofen","",48.635167,13.195667
"Leutkirch","",47.859117,10.014572
"Friedrichshafen","FDH",47.671317,9.511486
"Parchim","SZW",53.426997,11.783436
"Stendal","ZSN",52.627778,11.818333
"Aalen-heidenheim","",48.777833,10.264667
"Bayreuth","BYU",49.984428,11.638569
"Burg Feuerstein","",49.793833,11.133167
"Hof","HOQ",50.288836,11.854919
"Hassfurt","",50.018,10.5295
"Koblenz","ZNV",50.3255,7.528667
"Trier","ZQF",49.8635,6.788167
"Speyer","ZQC",49.302776,8.451195
"Zweibruecken","",49.209525,7.400647
"Donaueschingen","ZQL",47.973331,8.522223
"Freiburg","",48.022653,7.832583
"Mengen","",48.053833,9.372833
"Schwaebisch Hall","",49.118317,9.783956
"Soest","",51.6075,13.738
"Braunschweig","BWE",52.319167,10.556111
"Kassel","KSF",51.408394,9.377631
"Hildesheim","",52.179833,9.945667
"Bremerhaven","BRV",53.507081,8.572878
"Emden","EME",53.391186,7.227408
"Leer","",53.271592,7.442344
"Wilhelmshaven","WVN",53.504833,8.053333
"Borkum","BMK",53.5955,6.709167
"Norderney","NRD",53.706822,7.230247
"Flensburg","FLF",54.771772,9.378214
"Rendsburg","",54.220928,9.600803
"Westerland","GWT",54.91325,8.340472
"Armari Air Force Base","",59.260286,24.208467
"Kardla","KDL",58.990756,22.830733
"Kuressaare","URE",58.229883,22.509494
"Parnu","EPU",58.419044,24.472819
"Tallinn-ulemiste International","TLL",59.413317,24.832844
"Tartu","TAY",58.307461,26.690428
"Enontekio","ENF",68.362586,23.424322
"Eura","",61.116112,22.201389
"Halli","KEV",61.85605,24.7866
"Helsinki","HEM",60.254558,25.042828
"Helsinki","HEL",60.317222,24.963333
"Hameenkyro","",61.689656,23.073744
"Hanko","",59.848864,23.083583
"Hyvinkaa","HYV",60.654444,24.881111
"Kikala","",60.462502,23.6525
"Immola","",61.249172,28.903711
"Kitee","",62.166111,30.073611
"Ivalo","IVL",68.607269,27.405328
"Joensuu","JOE",62.662906,29.60755
"Jyvaskyla","JYV",62.399453,25.678253
"Kauhava","KAU",63.127078,23.051442
"Kemi","KEM",65.781889,24.5991
"Kajaani","KAJ",64.285472,27.692414
"Kauhajoki","",62.462502,22.393055
"Kruunupyy","KOK",63.721172,23.143131
"Kemijarvi","",66.712883,27.156786
"Kuusamo","KAO",65.987575,29.239381
"Kittila","KTT",67.701022,24.84685
"Kuopio","KUO",63.00715,27.797756
"Vesivehmaa","",61.144158,25.693508
"Lappeenranta","LPP",61.044553,28.144397
"Mariehamn","MHQ",60.122203,19.898156
"Menkijarvi","",62.946667,23.518889
"Mikkeli","MIK",61.6866,27.201794
"Nummela","",60.333889,24.296389
"Oulu","OUL",64.930061,25.354564
"Piikajarvi","",61.245558,22.193356
"Pori","POR",61.461686,21.799983
"Pudasjarvi","",65.402222,26.946944
"Pyhasalmi","",63.731917,25.926306
"Pattijoki","",64.688056,24.695833
"Rantasalmi","",62.065481,28.356494
"Rovaniemi","RVN",66.564822,25.830411
"Rayskala","",60.744722,24.107778
"Savonlinna","SVL",61.943064,28.945136
"Selanpaa","",61.062389,26.798861
"Sodankyla","SOT",67.395033,26.619133
"Tampere","TMP",61.414147,23.604392
"Teisko","",61.77335,24.027006
"Turku","TKU",60.514142,22.262808
"Utti","QVY",60.896394,26.938353
"Vaasa","VAA",63.05065,21.762175
"Varkaus","VRK",62.171111,27.868611
"Ylivieska-raudaskyla","",64.060547,24.715953
"Belfast","BFS",54.6575,-6.215833
"Enniskillen","ENK",54.398889,-7.651667
"Belfast","BHD",54.618056,-5.8725
"Londonderry","LDY",55.042778,-7.161111
"Birmingham","BHX",52.453856,-1.748028
"Coventry","CVT",52.369722,-1.479722
"Leicester","",52.607778,-1.031944
"Golouchestershire","GLO",51.894167,-2.167222
"Halfpenny Green","",52.5175,-2.259444
"Pailton","",51.668056,-2.056944
"Turweston","",52.040833,-1.095556
"Wellesbourne","",52.192222,-1.614444
"Manchester","MAN",53.353744,-2.27495
"Woodfort","",53.338056,-2.148889
"Chivenor","",51.087167,-4.150339
"Newquai","NQY",50.440558,-4.995408
"Lyneham","LYE",51.505144,-1.993428
"Boscombe Down","",51.152189,-1.747414
"Culdrose","",50.086092,-5.255711
"St. Athan","",51.404811,-3.43575
"Yeovilton","YEO",51.009358,-2.638819
"Haverfordwest","",51.833056,-4.961111
"Cardiff","CWL",51.396667,-3.343333
"Swansea","SWS",51.605333,-4.067833
"Bristol","BRS",51.382669,-2.719089
"Liverpool","LPL",53.333611,-2.849722
"London","LTN",51.874722,-0.368333
"Plymouth","PLH",50.422778,-4.105833
"Bournemouth","BOH",50.78,-1.8425
"Southampton","SOU",50.950261,-1.356803
"Lasham","QLA",51.187167,-1.0335
"Alderney","ACI",49.706111,-2.214722
"Guernsey","GCI",49.434956,-2.601969
"Jersey","JER",49.207947,-2.195508
"Shoreham By Sea","ESH",50.835556,-0.297222
"Biggin Hill","BQH",51.330833,0.0325
"London","LGW",51.148056,-0.190278
"London","LCY",51.505278,0.055278
"Farnborough","FAB",51.275833,-0.776333
"Chalsgrove","",51.676111,-1.080833
"Blackbushe","BBS",51.323889,-0.8475
"London","LHR",51.4775,-0.461389
"Southend","SEN",51.571389,0.695556
"Lydd","LYX",50.956111,0.939167
"Manston","MSE",51.342222,1.346111
"Brough","",53.719667,-0.566333
"Carlisle","CAX",54.9375,-2.809167
"Repton","",53.280556,-0.951389
"Blackpool","BLK",53.771667,-3.028611
"Humberside","HUY",53.574444,-0.350833
"Barrow Island","BWF",54.131167,-3.263667
"Leeds","LBA",53.865897,-1.660569
"Warton","",53.745097,-2.883061
"Hawarden","CEG",53.178056,-2.977778
"Isle Of Man","IOM",54.083333,-4.623889
"Newcastle","NCL",55.0375,-1.691667
"Teesside","MME",54.509189,-1.429406
"East Midlands","EMA",52.831111,-1.328056
"Llanbedr","",52.811744,-4.123575
"Ternhill","",52.871164,-2.533561
"Shawbury","",52.798169,-2.668042
"Woodvale","",53.581575,-3.055522
"Kirkwall","KOI",58.957778,-2.905
"Sumburgh","LSI",59.878889,-1.295556
"Wick","WIC",58.458889,-3.093056
"Aberdeen","ABZ",57.201944,-2.197778
"Inverness","INV",57.5425,-4.0475
"Glasgow","GLA",55.871944,-4.433056
"Edinburgh","EDI",55.95,-3.3725
"Islay","ILY",55.681944,-6.256667
"Prestwick","PIK",55.509444,-4.586667
"Benbecula","BEB",57.481111,-7.362778
"Scatsta","SDZ",60.432778,-1.296111
"Dundee","DND",56.452499,-3.025833
"Stornoway","SYY",58.215556,-6.331111
"Tiree","TRE",56.499167,-6.869167
"Leuchars","ADX",56.372889,-2.868444
"Lossiemouth","LMO",57.705214,-3.339169
"Cambridge","CBG",52.205,0.175
"Peterborough","",52.468056,-0.251111
"Norwich","NWI",52.675833,1.282778
"London","STN",51.885,0.235
"North Weald","",51.721667,0.154167
"Fowlmere","",53.394256,-1.388486
"Cranfield","",52.072222,-0.616667
"Exeter","EXT",50.734444,-3.413889
"Bristol","FZO",51.519444,-2.590833
"Oxford","OXF",51.836944,-1.32
"Benson","",51.616389,-1.095833
"Lakenheath","",52.409333,0.561
"Mildenhall","MHZ",52.361933,0.486406
"Wattisham","",52.127283,0.956264
"Wyton","",52.357167,-0.107833
"Fairford","FFD",51.682167,-1.790028
"Brize Norton","BZZ",51.749964,-1.583617
"Odiham","ODH",51.234139,-0.942825
"Cosford","",52.640028,-2.305578
"Northolt","NHT",51.553,-0.418167
"Coningsby","QCY",53.093014,-0.166014
"Dishforth","",54.137186,-1.420253
"Leeming","",54.292383,-1.5354
"Church Fenton","",53.834333,-1.1955
"Honington","BEQ",52.342611,0.772939
"Cottesmore","",52.735711,-0.648769
"Scampton","",53.307778,-0.550833
"Wittering","",52.612558,-0.476453
"Linton-on-ouse","",54.048911,-1.252747
"Waddington","WTN",53.166167,-0.523811
"Topcliffe","",54.205522,-1.382094
"Cranwell","",53.03035,-0.483242
"Barkston Heath","",52.962225,-0.561625
"Marham","KNF",52.648353,0.550692
"Mount Pleasant","MPN",-51.822777,-58.447222
"Amsterdam","AMS",52.308613,4.763889
"Weert","",51.25528,5.601389
"Maastricht","MST",50.911658,5.770144
"Deelen","",52.060556,5.873056
"Drachten","",53.119167,6.129722
"Eindhoven","EIN",51.450139,5.374528
"Groningen","GRQ",53.11972,6.579444
"Gilze-rijen","",51.567389,4.931833
"De Kooy","DHR",52.923353,4.780625
"Lelystad","",52.460278,5.527222
"Leeuwarden","LWR",53.228611,5.760556
"Rotterdam","RTM",51.956944,4.437222
"Soesterberg","UTC",52.1273,5.27619
"Enschede","ENS",52.27,6.874167
"Valkenburg","LID",52.166139,4.417944
"Woensdrecht","WOE",51.449092,4.342031
"Cork","ORK",51.841269,-8.491111
"Galway","GWY",53.300175,-8.941592
"Dublin","DUB",53.421333,-6.270075
"Connaught","NOC",53.910297,-8.818492
"Kerry","KIR",52.180878,-9.523783
"Casement","",53.301667,-6.451333
"Shannon","SNN",52.701978,-8.924817
"Sligo","SXL",54.280214,-8.599206
"Waterford","WAT",52.1872,-7.086964
"Aarhus","AAR",56.300017,10.619008
"Billund","BLL",55.740322,9.151778
"Copenhagen","CPH",55.617917,12.655972
"Esbjerg","EBJ",55.525942,8.553403
"Gronholt","",55.941387,12.382222
"Karup","KRP",56.297458,9.124628
"Laeso","",57.277228,11.000083
"Maribo","",54.699344,11.440117
"Odense","ODE",55.476664,10.330933
"Krusa-padborg","",54.870306,9.279014
"Copenhagen","RKE",55.585567,12.131428
"Ronne","RNN",55.063267,14.759558
"Soenderborg","SGD",54.964367,9.791731
"Skrydstrup","SKS",55.225553,9.263931
"Skive","",56.550208,9.172983
"Thisted","TED",57.0688,8.705225
"Kolding","",55.436283,9.330925
"Vagar","FAE",62.063628,-7.277219
"Vesthimmerland","",56.846944,9.458611
"Stauning","STA",55.990122,8.353906
"Aalborg","AAL",57.092789,9.849164
"Luxemburg","LUX",49.626575,6.211517
"Alesund","AES",62.560372,6.110164
"Andoya","ANX",69.2925,16.144167
"Alta","ALF",69.976111,23.371667
"Voss","",60.63885,6.501497
"Bronnoysund","BNN",65.461111,12.2175
"Bodo","BOO",67.269167,14.365278
"Bergen","BGO",60.293386,5.218142
"Batsfjord","BJF",70.600278,29.6925
"Kristiansand","KRS",58.204214,8.085369
"Geilo","",60.416667,8.512778
"Bardufoss","BDU",69.055758,18.540356
"Harstad/Narvik","EVE",68.4913,16.678108
"Fagernes","VDB",61.015556,9.288056
"Floro","FRO",61.583611,5.024722
"Oslo","OSL",60.193917,11.100361
"Haugesund","HAU",59.345267,5.208364
"Hasvik","HAA",70.486675,22.139744
"Kristiansund","KSU",63.111781,7.824522
"Kjeller","",59.969336,11.036089
"Kirkenes","KKN",69.725781,29.891295
"Farsund","FAN",58.099486,6.62605
"Molde","MOL",62.744722,7.2625
"Mosjoen","MJF",65.783997,13.214914
"Lakselv","LKL",70.068814,24.973489
"Notodden","NTB",59.565683,9.212222
"Orland","OLA",63.698908,9.604003
"Roros","RRS",62.578411,11.342347
"Rygge","RYG",59.378933,10.785389
"Svalbard","LYR",78.246111,15.465556
"Skien","SKE",59.185,9.566944
"Stord","SRP",59.791925,5.34085
"Sandnessjoen","SSJ",65.956828,12.468944
"Tromso","TOS",69.683333,18.918919
"Sandefjord","TRF",59.186703,10.258628
"Trondheim","TRD",63.457556,10.92425
"Stavanger","SVG",58.876778,5.637856
"Warsaw","",52.268494,20.911047
"Gdansk","GDN",54.377569,18.466222
"Krakow","KRK",50.077731,19.784836
"Katowice","",50.238147,19.034181
"Katowice","KTW",50.474253,19.080019
"Mielec","",50.322275,21.462131
"Poznan","POZ",52.421031,16.826325
"Rzeszow","RZE",50.109958,22.019
"Szczecin","SZZ",53.584731,14.902206
"Slupsk","OSP",54.478889,17.1075
"Shapaja","",53.790639,15.82625
"Warsaw","WAW",52.16575,20.967122
"Wroclaw","WRO",51.102683,16.885836
"Zielona Gora","IEG",52.138517,15.798556
"Linkoeping","",58.402278,15.525683
"Norrkoeping","",58.610867,16.103592
"Uppsala","",59.897328,17.588581
"Ronneby","RNB",56.266667,15.265
"Rada","",58.498136,13.053231
"Gothenborg","GOT",57.662836,12.279819
"Joenkoeping","JKG",57.757594,14.068731
"Falkoping","",58.169794,13.587847
"Lidkoping","LDK",58.465522,13.174414
"Gothenborg","GSE",57.774722,11.870372
"Skovde","KVB",58.4564,13.972672
"Trollhattan","THN",58.318056,12.345
"Karlsborg","",58.513842,14.507119
"Satenas","",58.426445,12.714389
"Stockholm","",59.418694,17.890694
"Karlskoga","KSK",59.345867,14.495922
"Mora","MXX",60.957908,14.511383
"Stockholm","NYO",58.788636,16.912189
"Arvika","",59.675856,12.639442
"Emmaboda","",56.610761,15.604761
"Ljungby","",56.950278,13.921667
"Kristianstad","KID",55.921686,14.085536
"Landskrona","JLD",55.944444,12.869444
"Oskarshamn","OSK",57.350453,16.497972
"Anderstorp","",57.264167,13.599439
"Kalkmar","KLR",56.685531,16.287578
"Malmoe","MMX",55.530193,13.371639
"Halmstad","HAD",56.691128,12.820211
"Hagshult","",57.292222,14.137222
"Vaxjo","VXO",56.929144,14.727994
"Hallviken","",63.738333,15.458333
"Hede","",62.408889,13.747222
"Sveg","EVG",62.047811,14.42295
"Gallivare","GEV",67.132408,20.814636
"Hudiksvall","HUV",61.768092,17.080719
"Jokkmokk","",66.496236,20.147181
"Kramfors","KRF",63.048597,17.768856
"Lycksele","LYC",64.548322,18.716219
"Optand","",63.128611,14.802778
"Sundsvall","SDL",62.528125,17.443928
"Ornskoldsvik","OER",63.408339,18.990039
"Pitea","",65.398333,21.260833
"Kiruna","KRN",67.821986,20.336764
"Orsa","",61.190033,14.712567
"Skelleftea","SFT",64.624772,21.076892
"Sattna","",62.481369,17.002917
"Umea","UME",63.791828,20.282758
"Vilhelmina","VHM",64.579083,16.833575
"Arvidsjaur","AJR",65.590278,19.281944
"Orebro","ORB",59.223733,15.037956
"Vasteras","VST",59.589444,16.633611
"Lulea","LLA",65.543758,22.121989
"Vidsel","",65.875325,20.149917
"Arboga","",59.386585,15.924055
"Stockholm","ARN",59.651944,17.918611
"Stockholm","BMA",59.354372,17.94165
"Borlange","BLE",60.422017,15.515211
"Hultsfred","HLF",57.525833,15.823333
"Gavle","GVX",60.593333,16.951389
"Linkoeping","LPI",58.40615,15.680508
"Norrkoeping","NRK",58.586253,16.250622
"Eskilstuna","",59.351078,16.7084
"Visby","VBY",57.662797,18.346211
"Kalixfors","",67.764789,20.257228
"Spangdahlem","SPM",49.972667,6.6925
"Ramstein","RMS",49.436911,7.600283
"Bamberg","",49.920433,10.914233
"Giebelstadt","GHF",49.648131,9.966494
"Brueckeburg","",52.2785,9.082167
"Celle","ZCN",52.5912,10.022133
"Rheine-brentlange","",52.291167,7.387
"Fritzlar","",51.1145,9.285833
"Laupheim","",48.220297,9.910019
"Mendig","",50.366,7.315333
"Niederstetten","",49.391833,9.958167
"Roth","",49.2175,11.100167
"Fassberg","",52.919406,10.197528
"Grafenwoehr","",49.698686,11.940175
"Hanau","ZNF",50.169189,8.961586
"Hohenfels","",49.218056,11.836111
"Kitzingen","",49.743057,10.200556
"Nordholz","",53.767667,8.6585
"Diepholz","",52.585514,8.341014
"Geilenkirchen","GKE",50.960817,6.042422
"Hohn","",54.312167,9.538167
"Jever","",53.5335,7.888667
"Laage","RLG",53.918167,12.278333
"Noervenich","",50.831167,6.658167
"Schleswig","",54.459333,9.516333
"Wittmundhafen","",53.547833,7.667333
"Neubrandenburg","",53.602167,13.306
"Wunstorf","",52.457333,9.427167
"Vilseck","",49.63361,11.767222
"Coleman","",49.563569,8.463392
"Wiesbaden","",50.049819,8.325397
"Landsberg","",48.0705,10.906
"Buechel","",50.173833,7.063333
"Erding","",48.322333,11.948667
"Fuerstenfeldbruck","FEL",48.205667,11.267
"Holzdorf","",51.767833,13.167667
"Ingolstadt","",48.715667,11.534
"Lechfeld","",48.1855,10.861167
"Neuburg","",48.711,11.2115
"Guetersloh","GUT",51.922833,8.306333
"Alexander Bay","ALJ",-28.575001,16.533333
"Aggeneys","AGZ",-29.281767,18.813869
"Brakpan","",-26.23865,28.301769
"Bisho","BIY",-32.89715,27.279111
"Bloemfontein","BFN",-29.092722,26.302444
"Bethlehem","",-28.248392,28.336125
"Bothaville","",-27.366769,26.629194
"Cape Town","CPT",-33.964806,18.601667
"Calvinia","",-31.500278,19.725897
"Durban","DUR",-29.970089,30.950519
"East London","ELS",-33.035569,27.825939
"Ermelo","",-26.495644,29.979764
"Ficksburg","",-28.823119,27.9089
"Johannesburg","GCJ",-25.986267,28.140061
"George","GRJ",-34.005553,22.378889
"Graaff Reinet","",-32.193611,24.541389
"Grahamstown","",-33.284721,26.498083
"Greytown","",-29.122011,30.586706
"Harmony","",-28.078694,26.861178
"Harrismith","",-28.235072,29.106206
"Hoedspruit","HDS",-24.368642,31.048744
"Hendrik Verwoerddam","",-30.562164,25.528286
"Johannesburg","JNB",-26.139166,28.246
"Klerksdorp","",-26.871064,26.718003
"Kimberley","KIM",-28.802834,24.765167
"Krugersdorp","",-26.080978,27.725667
"Kroonstad","",-27.660617,27.315761
"Kuruman","",-27.456667,23.411388
"Kleinsee","KLZ",-29.688403,17.094006
"Johannesburg","HLA",-25.938514,27.926133
"Lichtenburg","",-26.175672,26.184575
"Lambertsbaai","",-23.159911,29.696544
"Langebaanweg","",-32.968889,18.160278
"Ladysmith","LAY",-28.581667,29.749722
"Middelburg","",-25.684775,29.440158
"Margate","MGH",-30.857408,30.343019
"Marble Hall","",-24.989114,29.283122
"Majuba Power Station","",-27.079253,29.778528
"Kangia","",69.2225,-49.9383
"Malalane","",-25.473603,31.565828
"Musina","MEZ",-25.704458,26.908978
"Mkuze","",-27.626086,32.044275
"Newcastle","NCS",-27.770586,29.976894
"Nylstroom","",-24.686056,28.434944
"Overberg","",-34.554861,20.250681
"Oudtshoorn","DUH",-33.606967,22.188978
"Port Elizabeth","PLZ",-33.984919,25.617275
"Plettenberg Bay","",-34.090279,23.327778
"Phalaborwa","PHW",-23.937166,31.15539
"Polokwane","PTG",-23.926089,29.484422
"Port Saint Johns","",-31.605886,29.519786
"Pietermaritzburg","PZB",-29.648975,30.398667
"Pilanesberg","NTY",-25.333822,27.173358
"Potgietersrus","",-23.845306,29.458611
"Potchefstroom","",-26.670994,27.0819
"Parys","",-26.889344,27.503417
"Queenstown","UTW",-31.920197,26.882206
"Richard's Bay","RCB",-28.741039,32.092111
"Rustenburg","",-25.6443,27.271119
"Robertson","",-33.812181,19.902828
"Springbok","SBU",-29.689333,17.939611
"Secunda","",-26.524083,29.170144
"Saldanha","",-32.964067,17.969331
"Springs","",-26.248411,28.397508
"Swartkop","",-25.809717,28.164631
"Sishen","SIS",-27.648606,22.999278
"Swellendam","",-34.048222,20.474611
"Skukuza","SZK",-24.960944,31.588731
"Tommy's Field","",-28.260028,22.993178
"Bloemfontein","",-29.032928,26.157564
"Tutuka","",-26.776556,29.338778
"Tzaneen","LTA",-23.824417,30.329306
"Ulundi","ULD",-28.320586,31.416519
"Upington","UTN",-28.399097,21.260239
"Umtata","UTT",-31.547903,28.674289
"Vryburg","VRU",-26.982408,24.728756
"Durban","VIR",-29.770606,31.058406
"Vredendal","",-31.640961,18.544789
"Vereeniging","",-26.566372,27.960756
"Pretoria","PRY",-25.653858,28.224231
"Witbank","",-25.832294,29.192019
"Waterkloof","",-25.83,28.2225
"Welkom","WEL",-27.998,26.669586
"Ysterplaat","",-33.900244,18.498297
"Zeerust","",-25.598972,26.042333
"Francistown","FRW",-21.159597,27.474525
"Jwaneng","JWA",-24.602333,24.690971
"Kasane","BBK",-17.832875,25.1624
"Maun","MUB",-19.972564,23.431086
"Gaberone","GBE",-24.555225,25.918208
"Selebi-phikwe","PKW",-22.05835,27.828767
"Brazzaville","BZV",-4.2517,15.253031
"Owando","FTX",-0.53135,15.950094
"Ouesso","OUE",1.615994,16.037917
"Pointe-noire","PNR",-4.816028,11.886597
"Manzini","MTS",-26.529022,31.307519
"Bangui","BGF",4.398475,18.518786
"Berberati","BBT",4.221583,15.786369
"Bata","BSG",1.905469,9.805681
"Malabo","SSG",3.755267,8.708717
"Wide Awake","",-7.969597,-14.393664
"Plaisance","MRU",-20.430235,57.6836
"Rodriguez Island","RRG",-19.757658,63.360983
"Diego Garcia Island","",-7.313267,72.411089
"Tiko","TKC",4.089192,9.360528
"Douala","DLA",4.006081,9.719481
"Maroua","MVR",10.451392,14.257361
"Foumban","FOM",5.636919,10.750817
"N'gaoundere","NGE",7.357011,13.559242
"Garoua","GOU",9.335892,13.370103
"Bafoussam","BFX",5.536919,10.354583
"Bamenda","BPC",6.039239,10.122639
"Yaounde","YAO",3.836039,11.523461
"Kasompe","",-12.572778,27.89395
"Livingstone","LVI",-17.821756,25.822692
"Lusaka","LUN",-15.330817,28.452628
"Mfuwe","MFU",-13.258878,31.936581
"Mongu","",-15.254542,23.162306
"Ndola","NLA",-12.998139,28.664944
"Southdowns","KIW",-12.900469,28.149858
"Moroni","HAH",-11.533661,43.27185
"Moheli","NWA",-12.298108,43.7664
"Anjouan","AJN",-12.131667,44.430279
"Dzaoudzi","DZA",-12.804722,45.281113
"St.-denis","RUN",-20.8871,55.510308
"St.-pierre","ZSE",-21.320039,55.423581
"Antananarivo","TNR",-18.79695,47.478806
"Miandrivazo","ZVA",-19.562778,45.450832
"Sainte Marie","SMS",-17.093889,49.815834
"Toamasina","TMM",-18.109517,49.392536
"Morondava","MOQ",-20.28475,44.317614
"Antsiranana","DIE",-12.3494,49.291747
"Mananara","WMR",-16.1639,49.773753
"Andapa","ZWA",-14.651667,49.620556
"Ambilobe","AMB",-13.188431,48.987978
"Antalaha","ANM",-14.999411,50.320233
"Analalava","HVA",-14.629694,47.763783
"Mahajanga","MJN",-15.667144,46.351828
"Nosy-be","NOS",-13.312067,48.314822
"Besalampy","BPY",-16.741945,44.481388
"Maroantsetra","WMN",-15.436666,49.688332
"Sambava","SVB",-14.278611,50.174721
"Vohemar","VOH",-13.375834,50.002777
"Antsohihy","WAI",-14.89875,47.993894
"Ampampamena","",-13.484814,48.632739
"Tolagnaro","FTU",-25.038056,46.956111
"Fianarantsoa","WFI",-21.441558,47.111736
"Farafangana","RVA",-22.805286,47.820614
"Manakara","WVK",-22.119722,48.021667
"Mananjary","MNJ",-21.201772,48.358317
"Morombe","MXM",-21.753867,43.375533
"Toliara","TLE",-23.383369,43.728453
"M'banza-congo","SSY",-6.269897,14.247025
"Benguela","BUG",-12.609025,13.403711
"Cabinda","CAB",-5.596992,12.188353
"Culebra Island","CPX",18.3127,-65.3034
"Huambo","NOV",-12.808878,15.760547
"Kuito","SVP",-12.404633,16.947414
"Lobito","",-12.371233,13.536625
"Luanda","LAD",-8.858375,13.231178
"Malanje","MEG",-9.525086,16.312406
"Menongue","SPP",-14.657583,17.719833
"Negage","GXG",-7.754506,15.287728
"Porto Amboim","PBN",-10.721956,13.765528
"Saurimo","VHC",-9.689067,20.431875
"Soyo","SZA",-6.141086,12.371764
"Lubango","SDD",-14.924733,13.575022
"Luena","LUO",-11.768086,19.897672
"Uige","UGO",-7.603067,15.027822
"Xangongo","XGN",-16.755417,14.965344
"Oyem","OYE",1.543108,11.581361
"Okondja","OKN",-0.665214,13.673133
"Lambarene","LBQ",-0.704389,10.245722
"Bitam","BMM",2.075639,11.493195
"Port Gentil","POG",-0.711739,8.754383
"Omboue Hospial","OMB",-1.574733,9.262694
"Makokou","MKU",0.579211,12.890908
"Libreville","LBV",0.4586,9.412283
"Franceville","MVB",-1.656156,13.438036
"Principe","PCP",1.662936,7.411742
"Sao Tome","TMS",0.378175,6.712153
"Beira","BEW",-19.796419,34.907556
"Inhambane","INH",-23.876431,35.408544
"Lichinga","VXC",-13.273986,35.266262
"Lumbo","",-15.033058,40.671728
"Maputo","MPM",-25.920836,32.572606
"Mueda","",-11.672922,39.563142
"Mocimboa Da Praia","MZB",-11.361789,40.354875
"Marrupa","",-13.225053,37.552067
"Nacala","MNC",-14.488233,40.71225
"Nampula","APL",-15.105611,39.2818
"Pemba","POL",-12.986753,40.522492
"Quelimane","UEL",-17.8555,36.869106
"Songo","",-15.602694,32.773189
"Tete","TET",-16.104817,33.640181
"Ulongwe","",-14.704617,34.352369
"Vilankulu","VNX",-22.018431,35.313297
"Alphonse","",-7.004783,52.726247
"Desroches","DES",-5.696697,53.655844
"Farquhar","",-10.109611,51.176119
"Mahe","SEZ",-4.674342,55.521839
"Praslin","PRI",-4.319292,55.691417
"Coetivy","",-7.134567,56.278239
"Abeche","AEH",13.847,20.844333
"Moundou","MQQ",8.624406,16.071419
"N'djamena","NDJ",12.133689,15.034019
"Faya-largeau","FYT",17.917053,19.111078
"Bulawayo","BUQ",-20.017431,28.617869
"Harare","",-17.751561,30.924706
"Chiredzi","BFO",-21.008083,31.57855
"Victoria Falls","VFA",-18.095881,25.839006
"Harare","HRE",-17.931806,31.092847
"Kariba","KAB",-16.519761,28.884981
"Mutoko","",-17.431917,32.184502
"Mutare","",-18.997499,32.627224
"Masvingo","MVZ",-20.055333,30.859111
"Zvishavane","",-20.289497,30.088228
"Gwert","GWE",-19.436394,29.861911
"Hwange National Park","WKM",-18.629872,27.021042
"Blantyre","BLZ",-15.679053,34.974014
"Karonga","KGJ",-9.953569,33.893022
"Kasungu","",-13.014631,33.468597
"Lilongwe","LLW",-13.789378,33.781
"Mzuzu","ZZU",-11.44475,34.011776
"Maseru","MSU",-29.462256,27.552503
"Maseru","",-29.304053,27.503458
"Kinshasa","FIH",-4.38575,15.444569
"Kinshasa","NLO",-4.326689,15.327342
"Muanda","MNB",-5.930858,12.351789
"Kitona Base","",-5.918056,12.447694
"Bandoundu","FDU",-3.311319,17.381683
"Kikwit","KKW",-5.035767,18.785631
"Mbandaka","MDK",0.0226,18.288744
"Gbadolite","BDT",4.253206,20.975283
"Gemena","GMA",3.235369,19.771258
"Kotakoli","",4.157639,21.650917
"Lisala","LIQ",2.170658,21.496906
"Kisangani","FKI",0.5175,25.155014
"Isiro","IRP",2.827606,27.588253
"Bunia","BUX",1.565719,30.220833
"Buta Zega","",2.818347,24.793706
"Bukavu/kavumu","BKY",-2.308978,28.808803
"Goma","GOM",-1.670814,29.238464
"Kindu","KND",-2.919178,25.915361
"Lubumashi","FBM",-11.591333,27.530889
"Kolwezi","KWZ",-10.765886,25.505714
"Kalemie","FMI",-5.875556,29.25
"Kamina Base","KMN",-8.642025,25.252897
"Kananga","KGA",-5.900055,22.469166
"Mbuji-mayi","MJM",-6.121236,23.569008
"Bamako","BKO",12.533544,-7.949944
"Gao","GAQ",16.248433,-0.005456
"Kayes","KYS",14.481233,-11.404397
"Mopti","MZI",14.512803,-4.079561
"Tombouctou","TOM",16.730458,-3.007583
"Tessalit","",20.242983,0.977308
"Banjul","BJL",13.337961,-16.652206
"Fuerteventura","FUE",28.452717,-13.863761
"Hierro","VDE",27.814847,-17.887056
"Santa Cruz De La Palma","SPC",28.626478,-17.755611
"Gran Canaria","LPA",27.931886,-15.386586
"Las Palmas","ACE",28.945464,-13.605225
"Tenerife","TFS",28.044475,-16.572489
"Tenerife","TFN",28.482653,-16.341536
"Melilla","MLN",35.279817,-2.956256
"Freetown","FNA",8.616444,-13.195489
"Cufar","",11.287917,-15.1805
"Monrovia","MLW",6.289061,-10.758722
"Monrovia","ROB",6.233789,-10.362311
"Agadir","AGA",30.381353,-9.546311
"Tan Tan","TTA",28.448194,-11.161347
"Fes","FEZ",33.927261,-4.977958
"Ifrane","",33.505319,-5.152903
"Er-rachidia","ERH",31.9475,-4.398333
"Meknes","MEK",33.879067,-5.515125
"Oujda","OUD",34.78715,-1.923986
"Ben Slimane","",33.655422,-7.22145
"Rabat","RBA",34.051467,-6.751519
"Casablanca","CMN",33.367467,-7.589967
"Marrakech","RAK",31.606886,-8.0363
"Kentira","NNA",34.298864,-6.595878
"Ouarzazate","OZZ",30.939053,-6.909431
"Al Hociema","AHU",35.177103,-3.839525
"Tetouan","TTU",35.594333,-5.320019
"Tanger","TNG",35.726917,-5.916889
"Ziguinchor","ZIG",12.555617,-16.281783
"Cap Skiring","CSK",12.4102,-16.746125
"Kaolack","KLC",14.146881,-16.051297
"Dakar","DKR",14.739708,-17.490225
"St. Louis","XLS",16.050761,-16.463172
"Bakel","BXE",14.847256,-12.468264
"Kedougou","KGG",12.572292,-12.220333
"Tambacounda","TUD",13.736817,-13.653122
"Aioun El Atrouss","IEO",16.711294,-9.637883
"Tidjikja","TIY",18.570103,-11.423547
"Kiffa","KFA",16.589983,-11.406208
"Nema","EMN",16.622,-7.316567
"Kaedi","KED",16.159547,-13.507617
"Nouakschott","NKC",18.097856,-15.947956
"Selibabi","SEY",15.179692,-12.207272
"Atar","ATR",20.506828,-13.043194
"Nouadhibou","NDB",20.933067,-17.029956
"Bir Moghrein","",25.236697,-11.588697
"Fira","FIG",10.350556,-13.569167
"Faranah","FAA",10.035467,-10.769825
"Labe","LEK",11.326058,-12.28685
"Amilcar Cabral","SID",16.741389,-22.949444
"Boa Vista","BVC",16.136531,-22.888897
"Maio","MMO",15.155928,-23.213703
"Sao Nocolau Island","SNE",16.588356,-24.284656
"Sao Vicente Island","VXE",16.833689,-25.054661
"Addis Ababa","ADD",8.977889,38.799319
"Addis Ababa","",9.003681,38.726019
"Arba Minch","AMH",6.039389,37.590453
"Axum","AXU",14.14675,38.772833
"Bahar Dar","BJR",11.608075,37.321644
"Dire Dawa","DIR",9.6247,41.854203
"Gambella","GMB",8.128764,34.563131
"Gondar","GDQ",12.5199,37.434047
"Paradies Island","",3.4833,72.8369
"Jimma","JIM",7.666094,36.816639
"Lalibella","LLI",11.975014,38.979969
"Makale","MQX",13.467367,39.533464
"Asosa","ASO",10.01855,34.586253
"Bujumbura","BJM",-3.324019,29.318519
"Hargeisa","HGA",9.518167,44.088758
"Berbera","BBO",10.389167,44.941106
"Kismayu","KMU",-0.377353,42.459233
"Dowagiac","C91",41.9929342,-86.1280125
"Alexandria","ALY",31.183903,29.948889
"Abu Simbel","ABS",22.375953,31.611722
"Cairo","CAI",30.121944,31.405556
"Cairo","",30.116362,30.915445
"Hurghada","HRG",27.178317,33.799436
"El Gorah","EGR",31.068975,34.129194
"Luxor","LXR",25.671028,32.706583
"Mersa-matruh","MUH",31.325356,27.221689
"Port Said","PSD",31.279444,32.24
"St. Catherine","SKV",28.685278,34.0625
"Aswan","ASW",23.964356,32.819975
"El-tor","ELT",28.209028,33.645517
"Eldoret","EDL",0.404458,35.238928
"Kakamega","",0.271342,34.787297
"Kisumu","KIS",-0.086139,34.728892
"Kitale","KTL",0.971989,34.958556
"Cambridge","CDI",39.9750278,-81.5775833
"Lodwar","LOK",3.121967,35.608692
"Lamu","LAU",-2.252417,40.913097
"Mombasa","MBA",-4.034833,39.59425
"Naivasha","",-0.787953,36.433528
"Nairobi","WIL",-1.321719,36.814833
"Nairobi","",-1.277267,36.862339
"Wajir","WJR",1.733239,40.091606
"Buattifel","",28.795372,22.080939
"Giallo","",28.638458,21.438042
"Ghat","GHT",25.145564,10.142647
"Kufra","AKF",24.178728,23.313958
"Benghazi","BEN",32.096786,20.269472
"Sebha","SEB",26.986964,14.472525
"Tripoli","TIP",32.663544,13.159011
"Marsa Brega","",30.378139,19.576444
"Ras Lanouf V 40","",30.500013,18.527161
"Hon","",29.110106,15.965567
"Dahra","",29.472567,17.934936
"Ghadames","LTD",30.151695,9.715305
"Zella 74","",28.589878,17.293858
"Gisenyi","GYI",-1.677203,29.258875
"Kigali","KGL",-1.968628,30.13945
"Kamembe","KME",-2.462242,28.90795
"Dongola","DOG",19.153867,30.430094
"Damazin","",11.785889,34.336656
"El Fasher","ELF",13.614892,25.32465
"Kassala","KSL",15.387494,36.328842
"Kadugli","",11.138028,29.701122
"El Obeid","EBD",13.153219,30.232675
"Juba","JUB",4.872006,31.601117
"Malakal","MAK",9.558969,31.652242
"Khartoum","KRT",15.589497,32.553161
"Arusha","ARK",-3.367794,36.633333
"Dar Es Salaam","DAR",-6.878111,39.202625
"Dodoma","DOD",-6.170436,35.752578
"Iringa","IRI",-7.668633,35.752114
"Kilimanjaro","JRO",-3.429406,37.074461
"Lake Manyara","LKY",-3.376306,35.818278
"Mtwara","MYW",-10.339058,40.181781
"Mwanza","MWZ",-2.444486,32.932667
"Pemba","PMA",-5.257264,39.811417
"Tanga","TGT",-5.092358,39.071158
"Zanzibar","ZNZ",-6.222025,39.224886
"Entebbe","EBB",0.042386,32.443503
"Dusseldorf","QDU",51.220278,6.792778
"Soroti","SRT",1.727578,33.622861
"Tirana","TIA",41.414742,19.720561
"Bourgas","BOJ",42.569583,27.515236
"Gorna Orechovica","GOZ",43.151444,25.712889
"Plovdiv","PDV",42.067806,24.850833
"Sofia","SOF",42.695194,23.406167
"Stara Zagora","",42.376667,25.655195
"Varna","VAR",43.232072,27.825106
"Larnaca","LCA",34.875117,33.62485
"Paphos","PFO",34.718039,32.485731
"Akrotiri","AKT",34.590416,32.987861
"Dubrovnik","DBV",42.561353,18.268244
"Cepin","",45.542169,18.636233
"Osijek","OSI",45.462667,18.810156
"Pula","PUY",44.893533,13.922192
"Grobnik","",45.379483,14.503756
"Rijeka","RJK",45.216889,14.570267
"Split","SPU",43.538944,16.297964
"Varazdin","",46.294724,16.38125
"Zagreb","ZAG",45.742931,16.068778
"Zadar","ZAD",44.108269,15.346697
"Udbina","",44.55761,15.774361
"Albacete","",38.948528,-1.863517
"Alicante","ALC",38.282169,-0.558156
"Almeria","LEI",36.843936,-2.370097
"Aviles","OVD",43.563567,-6.034622
"Cordoba","ODB",37.842006,-4.848878
"Bilbao","BIO",43.301097,-2.910608
"Barcelona","BCN",41.297078,2.078464
"Badajoz","BJZ",38.89125,-6.821333
"La Coruna","LCG",43.302061,-8.377256
"Granada","",37.133222,-3.635694
"Gerona","GRO",41.900969,2.760547
"Granada","GRX",37.188731,-3.777356
"Madrid","",40.294139,-3.723833
"Ibiza","IBZ",38.872858,1.373117
"Jerez","XRY",36.744622,-6.060111
"Murcia","MJV",37.774972,-0.812389
"Porto Heli","PKH",37.298792,23.148986
"Madrid","MAD",40.493556,-3.566764
"Malaga","AGP",36.6749,-4.499106
"Menorca","MAH",39.862597,4.218647
"Sevilla","OZP",37.174917,-5.615944
"Ocana","",39.9375,-3.503333
"Pamplona","PNA",42.770039,-1.646331
"Murcia","",37.951111,-1.230319
"Reus","REU",41.147392,1.167172
"Rota","",36.645211,-6.349458
"Salamanca","SLM",40.952117,-5.501986
"Son Bonet","",39.598889,2.702778
"Palma De Mallorca","",39.551675,2.738808
"San Luis","",39.862222,4.258333
"San Sebastian","EAS",43.356519,-1.790611
"Santiago","SCQ",42.896333,-8.415144
"Seo De Urgel","LEU",42.338611,1.409167
"Madrid","TOJ",40.496747,-3.445872
"Valencia","VLC",39.489314,-0.481625
"Valladolid","VLL",41.706111,-4.851944
"Madrid","",40.370678,-3.785144
"Vitoria","VIT",42.882836,-2.724469
"Vigo","VGO",42.2318,-8.626775
"Santander","SDR",43.427064,-3.820006
"Zaragoza","ZAZ",41.666242,-1.041553
"Sevilla","SVQ",37.418,-5.893106
"Calais","CQF",50.962097,1.954764
"Peronne","",49.868547,3.029578
"Nangis","",48.596219,3.006786
"Bagnole-de-l'orne","",48.545836,-0.387444
"Albert","",49.971531,2.697661
"Le Tourquet","LTQ",50.517385,1.620587
"Valenciennes","",50.325808,3.461264
"Amiens","",49.873019,2.387075
"Agen","AGF",44.174721,0.590556
"Cazaux","",44.533333,-1.125
"Bordeaux","BOD",44.828335,-0.715556
"Bergerac","EGC",44.825279,0.518611
"Toulouse","",43.545555,1.3675
"Cognac","CNG",45.658333,-0.3175
"Poitiers","PIS",46.587745,0.306666
"Montlucon-gueret","",46.222644,2.363964
"Limoges","LIG",45.862778,1.179444
"Mont-de-marsan","",43.911667,-0.5075
"Niort","NIT",46.311303,-0.401503
"Toulouse","TLS",43.629075,1.363819
"Pau","PUF",43.38,-0.418611
"La Rochelle","",43.448891,1.263333
"Tarbes","LDE",43.178675,-0.006439
"Angouleme","ANG",45.729247,0.221456
"Brive","BVE",45.150833,1.469167
"Perigueux","PGX",45.198055,0.815556
"Biarritz-bayonne","BIQ",43.468419,-1.523325
"Cahors","",44.351387,1.475278
"St.-girons","",43.007764,1.10315
"Arcachon","XAC",44.59639,-1.110833
"Albi","LBI",43.913887,2.113056
"Castres","DCM",43.55625,2.289183
"Toulouse","",43.586113,1.499167
"Millau","",43.989342,3.183
"Graulhet","",43.771111,2.010833
"Rodez","RDZ",44.407869,2.482672
"Ussel","",45.534721,2.423889
"Villeneuve-sur-lot","",44.396946,0.758889
"Royan","RYN",45.628056,-0.9725
"Mimizan","",44.146111,-1.174444
"Aire-sur-l'adour","",43.709444,-0.245278
"Montauban","",44.025694,1.378042
"Auch","",43.687778,0.601667
"Libourne","",44.982498,-0.134722
"Pamiers","",43.090556,1.695833
"Marmande","",44.498919,0.200514
"Rochefort","RCO",45.887779,-0.983056
"Pontivy","",48.056789,-2.921244
"Aubigny-sur-nere","",47.474167,2.393055
"Guiscriff-scaer","",48.052508,-3.664717
"Ancenis","",47.408056,-1.1775
"Brienne-le Chateau","",48.429764,4.482222
"Colmar","CMR",48.109853,7.359011
"Beaune","",47.005886,4.893425
"Dole","DLE",47.039014,5.42725
"Joigny","",47.992222,3.392222
"Verdun","",49.122383,5.469047
"Aubenas-vals-lanas","OBS",44.544236,4.372192
"Le Puy","LPY",45.080689,3.762889
"St.-flour","",45.076389,2.993611
"Bourg","XBK",46.20089,5.292028
"Vilefrance","XVF",45.901947,4.634906
"Moulins","XMU",46.534581,3.423725
"St.-afrique-belmont","",43.823334,2.745278
"Cassagnes-beghones","",44.177776,2.515
"Metz","ETZ",48.982142,6.251319
"Bastia","BIA",42.552664,9.483731
"Calvi","CLY",42.530753,8.793189
"Figari","FSC",41.500557,9.097777
"Ajaccio","AJA",41.923637,8.802917
"Propriano","",41.660558,8.889747
"Solenzara","SOZ",41.924416,9.406
"Corte","",42.29361,9.193055
"Auxerre","AUF",47.850193,3.497111
"Chambery","CMF",45.63805,5.880225
"Clermont-Ferrand","CFE",45.786661,3.169169
"Bourges","BOU",47.058056,2.370278
"Chambery","",45.56105,5.975761
"Chalon","XCD",46.826108,4.817633
"Annemasse","QNJ",46.191972,6.268386
"Lyon","LYS",45.726387,5.090833
"Macon","QNX",46.295103,4.795767
"St.-yan","",46.412536,4.013264
"Roanne","RNE",46.058334,4.001389
"Annecy","NCY",45.929233,6.098764
"Grenoble","GNB",45.362944,5.329375
"Montlucon","MCU",46.352525,2.570486
"Valence","VAF",44.921594,4.9699
"Vichy","VHY",46.169689,3.403736
"Aurillac","AUR",44.891388,2.421944
"Chateauroux","CHR",46.862194,1.730667
"Lyon","LYN",45.727172,4.944275
"Aix-les-milles","QXB",43.505554,5.367778
"Le Luc","",43.384672,6.387139
"Cannes","CEQ",43.54205,6.953478
"St-Etienne","EBU",45.540554,4.296389
"Istres","",43.522736,4.923844
"Carcassonne","CCF",43.215978,2.306317
"Marseille","MRS",43.435555,5.213611
"Nice","NCE",43.658411,7.215872
"Orange","",44.140481,4.866717
"Perpignan","PGF",42.740442,2.870667
"Le Castellet","CTT",43.252506,5.785189
"Ales","",44.069656,4.142122
"Montpellier","MPL",43.576194,3.963014
"Beziers","BZR",43.323522,3.353903
"Avignon","AVN",43.9073,4.901831
"Salon","",43.606415,5.10925
"Lezignan-corbieres","",43.175835,2.734167
"Mende","MEN",44.502108,3.532819
"Carpentras","",44.029847,5.078058
"Avord","",47.053333,2.6325
"Beauvais","BVA",49.454444,2.112778
"Chateaudun","",48.058142,1.376625
"Saumur","",47.256839,-0.115142
"Evreux","",49.028669,1.219864
"Le Havre","LEH",49.533889,0.088056
"Abbeville","",50.143492,1.831892
"Orleans","ORE",47.987778,1.760556
"Chalons","XCR",48.776072,4.184492
"Rouen","URO",49.384172,1.1748
"Tours","TUF",47.432222,0.727606
"Cholet","CET",47.082136,-0.877064
"Laval","LVA",48.031361,-0.742986
"Orleans","",47.896946,2.163333
"Paris","LBG",48.969444,2.441389
"Creil","CSF",49.253547,2.519139
"Paris","CDG",49.012779,2.55
"Coulommiers","",48.837653,3.016117
"Melun","",48.604725,2.671119
"Toussous-le-noble","TNF",48.751922,2.106189
"Paris","ORY",48.725278,2.359444
"Pontoise","POX",49.096647,2.040833
"Villacoublay","",48.774406,2.201536
"Reims","",49.208689,4.156581
"Troyes","QYR",48.322136,4.016703
"Luneville","",48.593275,6.543456
"Etain","",49.226917,5.672219
"Autun","",46.967283,4.260572
"Nevers","NVS",47.002625,3.113333
"Cambrai","",50.221814,3.154236
"Maubeuge","",50.310467,4.033119
"Besancon-la-veze","",47.206567,6.083681
"Phalsbourg","",48.76625,7.200519
"Lille","LIL",50.561942,3.089444
"Merville","",50.618394,2.642242
"Charleville","",49.783942,4.647078
"Vesoul-frotey","",47.637611,6.203922
"Brest","BES",48.447911,-4.418539
"Cherbourg","CER",49.650106,-1.470281
"Dinard","DNR",48.587683,-2.079958
"La Baule","",47.289444,-2.346389
"Granville","GFR",48.883057,-1.564167
"Deauville","DOL",49.365339,0.154306
"Lorient","LRT",47.760555,-3.44
"La Roche-sur-yon","EDM",46.701944,-1.378625
"Landivisiau","",48.530258,-4.151642
"Caen","CFR",49.173333,-0.45
"Lanvedoc","",48.281703,-4.445017
"Le Mans","LME",47.948611,0.201667
"Rennes","RNS",48.069508,-1.734794
"Lannion","LAI",48.754378,-3.471656
"Quimper","UIP",47.974981,-4.167786
"Nantes","NTE",47.153189,-1.610725
"St.-brieuc Armor","SBK",48.537777,-2.854445
"Morlaix","MXN",48.603222,-3.815783
"Vannes","VNE",47.723303,-2.718561
"St.-nazaire","SNR",47.312189,-2.149181
"Mulhouse","MLH",47.589583,7.529914
"Colmar","",47.921978,7.399669
"Dijon","DIJ",47.26889,5.09
"Metz","MZM",49.071667,6.131667
"Epinal","EPL",48.324961,6.069983
"Haguenau","",48.794331,7.817613
"St.-dizier","",48.636008,4.899417
"Montbeliard","",47.487,6.790536
"Nancy","ENC",48.692069,6.230458
"Nancy","",48.583056,5.955
"Pontarlier","",46.903958,6.327367
"Reims","RHE",49.31,4.05
"Strasbourg","SXB",48.538319,7.628233
"Luxeuil","",47.783131,6.364056
"Cuers","",43.247803,6.126697
"Hyeres","TLN",43.0973,6.14603
"Nimes","FNI",43.757444,4.416347
"Miquelon","MQC",47.095472,-56.380278
"St.-pierre","FSP",46.762904,-56.173088
"Amberieu","",45.987335,5.328445
"Damblain","",48.086325,5.664058
"Andravida","PYR",37.920708,21.292583
"Agrinion","AGQ",38.602022,21.351208
"Alexandroupolis","AXD",40.855869,25.956264
"Alexandria","",40.651128,22.488739
"Nea Anghialos","VOL",39.219619,22.794339
"Elefsis","",38.063831,23.556011
"Chios","JKH",38.343175,26.140572
"Ioannina","IOA",39.696388,20.8225
"Heraklion","HER",35.339719,25.180297
"Kastoria","KSO",40.446294,21.282186
"Kithira","KIT",36.274258,23.016978
"Keffallinia","EFL",38.120069,20.500481
"Kalamata","KLX",37.068319,22.025525
"Kavala","",40.972775,24.341417
"Kos","KGS",36.793335,27.091667
"Karpathos","AOK",35.421408,27.146008
"Kerkyra/corfu","CFU",39.601944,19.911667
"Kasos","KSJ",35.421358,26.910047
"Kavala","KVA",40.913306,24.619223
"Kozani","KZI",40.28611,21.840834
"Leros","LRS",37.184903,26.800289
"Limnos","LXS",39.917072,25.236308
"Larissa","LRA",39.650253,22.4655
"Megara","",37.981114,23.365422
"Mykonos","JMK",37.435128,25.348103
"Mytilini","MJT",39.056667,26.598333
"Preveza","PVK",38.925467,20.765311
"Rhodos","",36.383056,28.108889
"Rhodos","RHO",36.405419,28.086192
"Patras","GPA",38.151111,21.425556
"Chania","CHQ",35.531747,24.149678
"Skiathos","JSI",39.1771,23.503675
"Samos","SMI",37.689999,26.911667
"Lympne","LYM",51.083333,1.016667
"Sparti","",36.973892,22.526292
"Thira","JTR",36.399169,25.479333
"Sitia","JSH",35.216108,26.101325
"Stefanovikion","",39.48,22.767222
"Skiros","SKU",38.967553,24.487228
"Tanagra","",38.339847,23.564958
"Kasteli","",35.192019,25.327
"Tripolis","",37.530567,22.403633
"Thessaloniki","SKG",40.519725,22.97095
"Dekelia","",38.108928,23.783836
"Zakynthos","ZTH",37.750853,20.88425
"Budapest","BUD",47.436933,19.255592
"Debrecen","DEB",47.488917,21.615333
"Kecskemet","",46.9175,19.749222
"Nyirregyhaza","",47.983892,21.692317
"Ocseny","",46.303889,18.769167
"Sturgeon Bay","SUE",44.8436667,-87.4215556
"Azentkilyszabadja","",47.077861,17.968444
"Szolnok","",47.122861,20.2355
"Amendola","",41.541392,15.718083
"Crotone","CRV",38.997225,17.080169
"Bari","BRI",41.138856,16.760594
"Foggia","FOG",41.432917,15.535028
"Grottaglie","TAR",40.517514,17.403212
"Lecce","LCC",40.239228,18.133325
"Pescara","PSR",42.431656,14.181067
"Brindisi","BDS",40.657633,17.947033
"Gioia Del Colle","",40.767833,16.933333
"Lamezia","SUF",38.905394,16.242269
"Catania","CTA",37.466781,15.0664
"Lampedusa","LMP",35.497914,12.618083
"Pantelleria","PNL",36.816519,11.968864
"Palermo","PMO",38.175958,13.091019
"Palermo","",38.110833,13.313333
"Reggio Calabria","REG",38.071206,15.651556
"Trapani","TPS",37.911403,12.487961
"Sigonella","NSY",37.401664,14.922358
"Alghero","AHO",40.632133,8.290772
"Decimomannu","DCI",39.354222,8.972481
"Cagliari","CAG",39.251469,9.054283
"Olbia","OLB",40.898661,9.517628
"Tortoli","TTB",39.918761,9.682981
"Turin","",45.086353,7.603375
"Milano","",45.542222,9.203333
"Milano","MXP",45.630606,8.728111
"Bergamo","BGY",45.673889,9.704166
"Torino","TRN",45.200761,7.649631
"Albenga","ALL",44.050608,8.127428
"Genoa","GOA",44.413333,8.8375
"Milan","LIN",45.445103,9.276739
"Cameri","",45.529592,8.669225
"Parma","PMF",44.824483,10.296367
"Piacenza","QPZ",44.913055,9.723333
"Stewartstown","0P2",39.7948244,-76.6471914
"Cuneo","CUF",44.547019,7.623217
"Aviano","AVB",46.031889,12.596472
"Bolzano","BZO",46.460194,11.326383
"Cervia","",44.224175,12.307203
"Bologna","BLQ",44.535444,11.288667
"Treviso","TSF",45.6484,12.194422
"Rivolto","",45.97875,13.049331
"Forli","FRL",44.194753,12.070094
"Ghedi","",45.432167,10.267667
"Verona","",45.472017,10.927919
"Brescia","VBS",45.428889,10.330556
"Ronchi De Legionari","TRS",45.8275,13.472222
"Rimini","RMI",44.020292,12.611747
"Treviso","",45.684867,12.082881
"Vicenza","VIC",45.573411,11.52955
"Padova","QPA",45.395767,11.847903
"Villafranca","VRN",45.395706,10.888533
"Venice","VCE",45.505278,12.351944
"Siena","SAY",43.256286,11.255036
"Rome","CIA",41.799361,12.594936
"Pratica Di Mare","",41.654522,12.445183
"Rome","FCO",41.804475,12.250797
"Guidonia","",41.990278,12.740833
"Marina Di Campo","EBA",42.760277,10.239445
"Latina","QLT",41.542436,12.909019
"Grazzanise","",41.060833,14.081944
"Naples","NAP",40.886033,14.290781
"Pisa","PSA",43.683917,10.39275
"Florence","FLR",43.809953,11.2051
"Grosseto","GRS",42.759747,11.071897
"Rome","",41.951946,12.498889
"Viterbo","",42.430183,12.064156
"Perugia","PEG",43.095906,12.513222
"Cerklje","",45.899971,15.530194
"Ljubljana","LJU",46.223686,14.457611
"Maribor","MBX",46.479861,15.686131
"Portoroz","POW",45.473353,13.614978
"Slovenj Gradec","",46.471975,15.116997
"Ceske Budejovice","",48.946381,14.427464
"Caslav","",49.939653,15.381808
"Hradec Kralove","",50.2532,15.845228
"Horovice","",49.848111,13.893506
"Praha","",50.121367,14.543642
"Kunovice","",49.029444,17.439722
"Karlovy Vary","KLV",50.202978,12.914983
"Line","",49.675172,13.274617
"Mnichovo Hradiste","",50.540211,15.006592
"Ostrava","OSR",49.696292,18.111053
"Namest","",49.165833,16.124925
"Pardubice","PED",50.013419,15.738647
"Pribram","",49.720078,14.100567
"Prerov","PRV",49.425833,17.404722
"Prague","PRG",50.100833,14.26
"Brno","BRQ",49.151269,16.694433
"Vodochody","",50.216581,14.395806
"Tel-aviv","TLV",32.011389,34.886667
"Beer-sheba","BEV",31.287003,34.722953
"Tel-nof","",31.839472,34.821844
"Eyn-shemer","",32.440814,35.007661
"Elat","ETH",29.561281,34.960081
"Eyn-yahav","",30.621656,35.203325
"Haifa","HFA",32.809444,35.043056
"Haztor","",31.7625,34.727222
"Rosh Pina","RPN",32.981047,35.571908
"Megido Airstrip","",32.597139,35.228803
"Metzada","",31.328169,35.388608
"Nevatim","",31.208347,35.0123
"Ovda","VDA",29.94025,34.93585
"Ramat David","",32.665142,35.179458
"Ramon","",30.776061,34.666769
"Tel-aviv","SDV",32.114661,34.782239
"Malta","MLA",35.857497,14.4775
"Wiener Neustadt Ost","",47.843333,16.260139
"Wels","",48.183304,14.040861
"Graz","GRZ",46.991067,15.439628
"Innsbruck","INN",47.260219,11.343964
"Linz","LNZ",48.233219,14.187511
"Salzburg","SZG",47.793304,13.004333
"Vienna","VIE",48.110278,16.569722
"Klagenfurt","",46.642514,14.337739
"Zeltweg","",47.202751,14.744223
"Alverca","",38.883278,-9.030097
"Santa Maria (island)","SMA",36.97139,-25.170639
"Braganca","BGC",41.8578,-6.707125
"Beja (madeira)","",38.078903,-7.932397
"Braga","",41.587058,-8.445139
"Coimba","",40.157223,-8.47
"Cascais","",38.725025,-9.355231
"Covilha","",40.264772,-7.479958
"Evora","",38.533472,-7.889639
"Flores","FLW",39.455272,-31.131361
"Faro","FAO",37.014425,-7.965911
"Graciosa Island","GRW",39.092169,-28.029847
"Horta","HOR",38.519894,-28.715872
"Lajes (terceira Island)","TER",38.761842,-27.090797
"Monte Real","",39.831244,-8.887261
"Montijo","",38.703861,-9.035916
"Ovar","",40.915867,-8.645919
"Ponta Delgada","PDL",37.741184,-25.69787
"Pico","PIX",38.554333,-28.441333
"Portimao","",37.149331,-8.583961
"Porto","OPO",41.248055,-8.681389
"Porto Santo","PXO",33.073386,-16.349975
"Lisbon","LIS",38.781311,-9.135919
"Sao Jorge Island","SJZ",38.6655,-28.175817
"Sintra","",38.831053,-9.339553
"Tancos","",39.47514,-8.364583
"Vila Real","VRL",41.274334,-7.720472
"Viseu","",40.725539,-7.888992
"Pendleton","PDT",45.695,-118.841389
"Mostar","OMO",43.2829,17.845878
"Sarajevo","SJJ",43.824583,18.331467
"Arad","ARW",46.17655,21.262022
"Bacau","BCM",46.521946,26.910278
"Baia Mare","BAY",47.658389,23.470022
"Bucharest","BBU",44.503194,26.102111
"Constanta","CND",44.362222,28.488333
"Cluj-napoca","CLJ",46.785167,23.686167
"Caransebes","CSB",45.42,22.253333
"Craiova","CRA",44.318139,23.888611
"Iasi","IAS",47.178492,27.620631
"Oradea","OMR",47.025278,21.9025
"Bucharest","OTP",44.572161,26.102178
"Sibiu","SBZ",45.785597,24.091342
"Satu Mare","SUJ",47.703275,22.8857
"Suceava","SCV",47.6875,26.354056
"Tulcea","TCE",45.062486,28.714311
"Tirgu Mures","TGM",46.467714,24.412525
"Timisoara","TSR",45.809861,21.337861
"Les Eplatures","",47.08385,6.792836
"Geneva","GVA",46.238064,6.10895
"Saanen","",46.487499,7.250834
"Sion","SIR",46.219592,7.326764
"Alpnach","",46.943889,8.284167
"Dubendorf","",47.398644,8.648231
"Emmen","",47.092369,8.305117
"Mollis","",47.078872,9.064831
"Meiringen","",46.743333,8.11
"Payerne","",46.843208,6.915058
"Buochs","",46.974914,8.39915
"Lugano","LUG",46.004275,8.910578
"Bern","BRN",46.9141,7.497153
"Grenchen","",47.181628,7.417189
"Zurich","ZRH",47.464722,8.549167
"Altenrhein","ACH",47.485033,9.560775
"Samedan","SMV",46.534075,9.884106
"Ankara","",39.93495,32.740775
"Ankara","ESB",40.128082,32.995083
"Ankara","ANK",39.949831,32.688622
"Ankara","",40.078919,32.565625
"Adana","ADA",36.982166,35.280388
"Adana","",37.0021,35.425894
"Afyon","AFY",38.726425,30.601114
"Antalya","AYT",36.898731,30.800461
"Gaziantep","GZT",36.947183,37.478683
"Iskenderun","",36.573472,36.154
"Konya","KYA",37.979,32.561861
"Malatya","",38.35375,38.253944
"Merzifon","MZH",40.829375,35.521992
"Sivas","VAS",39.813828,36.903497
"Malatya","MLX",38.435347,38.091006
"Kayseri","ASR",38.770386,35.495428
"Sivrihisar","",39.451469,31.365308
"Tokat","",40.306281,36.371089
"Denizli","DNZ",37.785567,29.701297
"Istanbul","IST",40.976922,28.814606
"Balikesir","BZI",39.619258,27.925958
"Bandirma","BDM",40.317972,27.977694
"Tyonek","TYE",61.076667,-151.138056
"Eskisehir","ESK",39.784138,30.582111
"Izmir","ADB",38.292392,27.156953
"Izmir","",38.319106,27.159353
"Izmir","IGL",38.513022,27.010053
"Isparta","",37.785369,30.581817
"Kutahya","",39.426708,30.016872
"Yalova","",40.684353,29.375728
"Topel","",40.735028,30.083336
"Dalaman","DLM",36.713056,28.7925
"Akhisar","",38.808887,27.83386
"Riverton WY","RIW",43.064167,-108.459722
"Bodrum","BXN",37.140144,27.669717
"Istanbul","",40.992975,29.216539
"Elazig","EZS",38.606925,39.291417
"Diyabakir","DIY",37.893897,40.201019
"Erzincan","ERC",39.710203,39.527003
"Erzurum","ERZ",39.956501,41.170166
"Trabzon","TZX",40.995108,39.789728
"Montrose CO","MTJ",38.509794,-107.894242
"Van","VAN",38.468219,43.3323
"Batman","BAL",37.928969,41.116583
"Siirt","",37.978886,41.840436
"Izmir","",38.517608,26.977406
"Izmir","",37.950747,27.329014
"Saltsy","",47.838114,27.781475
"Chisinau","KIV",46.927744,28.930978
"Ohrid","OHD",41.179956,20.742325
"Skopje","SKP",41.961622,21.621381
"Gibraltar","GIB",36.151219,-5.349664
"Belgrade","BEG",44.818444,20.309139
"Nis","INI",43.337289,21.853722
"Podgorica","TGD",42.359392,19.251894
"Pristina","PRN",42.572778,21.035833
"Tivat","TIV",42.404664,18.723286
"Vrsac","",45.146889,21.309889
"Bratislava","BTS",48.170167,17.212667
"Kosice","KSC",48.663055,21.241112
"Malacky","",48.402028,17.118389
"Piestany","PZY",48.625247,17.828444
"Sliac","SLD",48.637839,19.134108
"Trencin","",48.865003,17.99225
"Poprad","TAT",49.073594,20.241142
"Bolingbrook","1CS",41.6959744,-88.1292306
"North Caicos","NCA",21.917475,-71.939561
"Providenciales","PLS",21.773625,-72.265886
"South Caicos","XSC",21.515739,-71.528528
"Samana","EPS",19.198586,-69.429772
"Barahona","BRX",18.251464,-71.1204
"Cabo Rojo","",17.928981,-71.644769
"La Romana","LRM",18.450711,-68.911833
"Punta Cana","PUJ",18.567367,-68.363431
"Puerto Plata","POP",19.7579,-70.570033
"Santo Domingo","SDQ",18.429664,-69.668925
"San Isidoro","",18.503706,-69.761706
"Santiago","STI",19.406092,-70.604689
"Bananera","",15.473528,-88.837222
"Coban","CBV",15.468958,-90.406742
"Guatemala City","GUA",14.583272,-90.527475
"Retalhuleu","",14.521017,-91.697256
"San Jose","",13.936192,-90.835833
"La Ceiba","LCE",15.742481,-86.853036
"San Pedro Sula","SAP",15.452639,-87.923556
"Guanaja","GJA",16.445367,-85.906611
"Roatan","RTB",16.316814,-86.522961
"Tela","TEA",15.775864,-87.475847
"Tegucigalpa","TGU",14.060883,-87.217197
"Trujillo","",15.926847,-85.93825
"Ocho Rios","OCJ",18.404247,-76.969017
"Kingston","KIN",17.935667,-76.7875
"Montego Bay","MBJ",18.503717,-77.913358
"Port Antonio","POT",18.198806,-76.534528
"Kingston","KTP",17.988558,-76.823761
"Acapulco","ACA",16.757061,-99.753953
"Monterrey","NTR",25.865572,-100.237239
"Aguascalientes","AGU",21.705558,-102.317858
"Huatulco","HUX",15.775317,-96.262572
"Cuernavaca","CVJ",18.834764,-99.2613
"Ciudad Acuna","",29.333917,-101.100892
"Ciudad Del Carmen","CME",18.653739,-91.799017
"Nuevo Casas Grandes","",30.397439,-107.874969
"Chilpancingo","",17.573767,-99.514339
"Culiacan","CUL",24.764547,-107.474717
"Chetumal","CTM",18.504667,-88.326847
"Ciudad Obregon","CEN",27.392639,-109.833111
"Campeche","CPE",19.816794,-90.500314
"Ciudad Juarez","CJS",31.636133,-106.428667
"Chihuahua","CUU",28.702875,-105.964567
"Ciudad Victoria","CVM",23.703336,-98.956486
"Kenosha","ENW",42.5956944,-87.9278056
"Cozumel","CZM",20.522403,-86.925644
"Durango","DGO",24.124194,-104.528014
"Tepic","TPQ",21.419453,-104.842581
"Ensenada","ESE",31.795281,-116.602772
"Guadalajara","GDL",20.5218,-103.311167
"Guaymas","GYM",27.968983,-110.925169
"Tehuacan","TCN",18.497189,-97.419942
"Hermosillo","HMO",29.095858,-111.047858
"Colima","CLQ",19.277011,-103.577397
"Isla Mujeres","ISJ",21.245033,-86.739967
"Saltillo","SLW",25.549497,-100.928669
"Iztepec","",16.449336,-95.093697
"Lazard Cardenas","LZC",18.001731,-102.220525
"Los Mochis","LMM",25.685194,-109.080806
"Del Bajio","BJX",20.993464,-101.480847
"La Paz","LAP",24.072694,-110.362475
"Loreto","LTO",25.989194,-111.348361
"Matamoros","MAM",25.769894,-97.525311
"Merida","MID",20.936981,-89.657672
"Mexicali","MXL",32.630634,-115.241637
"Morelia","MLM",19.849944,-101.0255
"Minatitlan","MTT",18.103419,-94.580681
"Monclova","LOV",26.955733,-101.470136
"Mexico City","MEX",19.436303,-99.072097
"Monterrey","MTY",25.778489,-100.106878
"Mazatlan","MZT",23.161356,-106.266072
"Nogales","NOG",31.226083,-110.975831
"Nuevo Laredo","NLD",27.443918,-99.57046
"Oaxaca","OAX",16.999906,-96.726639
"Poza Rico","PAZ",20.602671,-97.460839
"Puebla","PBC",19.158144,-98.371447
"Pachuca","PCA",20.0772,-98.782814
"Punta Penasco","PPE",31.351878,-113.525728
"Piedras Negras","PDS",28.627394,-100.535211
"Uruapan","UPN",19.396692,-102.039056
"Puerto Vallarta","PVR",20.680083,-105.254167
"Puerto Escondido","PXM",15.876861,-97.089117
"Queretaro","QRO",20.617289,-100.185658
"Reynosa","REX",26.008908,-98.228513
"San Jose Del Cabo","SJD",23.15185,-109.721044
"San Filipe","",30.930222,-114.808639
"San Luis Potosi","SLP",22.254303,-100.930806
"Tlaxcala","TXA",19.537964,-98.173467
"Tuxtla Gutierrez","",16.739919,-93.173297
"Torreon","TRC",25.568278,-103.410583
"Tuxtla Gutierrez","TGZ",16.561822,-93.026081
"Tijuana","TIJ",32.541064,-116.970158
"Tampico","TAM",22.29645,-97.865931
"Tamuin","TSL",22.038292,-98.806503
"Toluca","TLC",19.337072,-99.566008
"Tapachula","TAP",14.794339,-92.370025
"Cancun","CUN",21.036528,-86.877083
"Villahermosa","VSA",17.997,-92.817361
"Vera Cruz","VER",19.145931,-96.187267
"Zacatecas","ZCL",22.897112,-102.68689
"Zihuatanejo","ZIH",17.601569,-101.460536
"Zamora","ZMM",20.045036,-102.275955
"Manzanillo","ZLO",19.144778,-104.558631
"Zapopan","",20.755833,-103.465278
"Bluefields","BEF",11.990961,-83.774086
"Los Brasiles","",12.190044,-86.353872
"Leon","",12.428028,-86.902361
"Managua","MGA",12.141494,-86.168178
"Puerto Cabezas","PUZ",14.047194,-83.386722
"Bocas Del Toro","BOC",9.340853,-82.250842
"Changuinola","CHX",9.458636,-82.516806
"David","DAV",8.391003,-82.434992
"Howard","HOW",8.914794,-79.599633
"Panama","PAC",8.973339,-79.555583
"Santiago","",8.085597,-80.945253
"Panama City","PTY",9.071364,-79.383453
"Buenos Aires","",9.163606,-83.329872
"Las Vegas","VGT",36.2106944,-115.1944444
"Coto 47","OTR",8.601556,-82.968614
"Chacarita","",9.981408,-84.772736
"Georgetown","",38.8819456,-83.8827367
"El Carmen","",10.202033,-83.472167
"Finca 10","",8.916347,-83.507267
"Golfito","GLF",8.653775,-83.180544
"Guapiles","",10.217194,-83.797003
"Liberia","LIR",10.593289,-85.544408
"Los Chiles","",11.035277,-84.706108
"Limon","LIO",9.957961,-83.022006
"Nosara Beach","NOB",9.97649,-85.653
"San Jose","SJO",9.993861,-84.208806
"Pandora","",9.732169,-82.983214
"Palmar Sur","PMZ",8.951025,-83.468583
"Quepos","XQP",9.443164,-84.129772
"Santa Clara","",10.288278,-83.713519
"San Vito De Jaba","",8.826111,-82.958885
"San Salvador","SAL",13.440947,-89.055728
"San Salvador","",13.699492,-89.119861
"Cayes","",18.271103,-73.788289
"Cap Haitien","CAP",19.732989,-72.194739
"Jacmel","",18.241083,-72.5185
"Port-au-prince","PAP",18.58005,-72.292542
"Baracoa Playa","BCA",20.365317,-74.506206
"Bayamo","BYM",20.396331,-76.621494
"Ciego De Avila","AVI",22.027053,-78.789617
"Cunagua","",22.460986,-78.328422
"Cienfuegos","CFG",22.15,-80.414167
"Cayo Largo del Sur","CYO",21.616453,-81.545989
"Camaguey","CMW",21.420428,-77.847433
"Santiago De Cuba","SCU",19.969769,-75.835414
"Florida","",21.499722,-78.202778
"Guantanamo","",19.906458,-75.207056
"Guantanamo","GAO",20.085419,-75.158328
"Havana","HAV",22.989153,-82.409086
"Holguin","HOG",20.785589,-76.315108
"La Coloma","LCL",22.336261,-83.642111
"Moa","MOA",20.654114,-74.922114
"Manzanillo","MZO",20.288172,-77.0893
"Nueva Gerona","GER",21.834689,-82.783819
"Baracoa Playa","",23.032778,-82.579444
"Pinar Del Rio Norte","",22.421356,-83.678428
"San Antonio De Banos","",22.871529,-82.509308
"Santa Clara","SNU",22.492192,-79.943611
"Santa Lucia","",21.509453,-77.020375
"Siguanea","",21.642525,-82.955114
"Sancti Spiritus","",21.969969,-79.442692
"Lake Geneva","C02",42.6149167,-88.3895833
"Varadero","VRA",23.034445,-81.435278
"Las Tunas","VTU",20.987642,-76.9358
"Cayman Barac","CYB",19.686981,-79.882789
"Georgetown","GCM",19.292778,-81.35775
"Clarence Bain","",24.287664,-77.684614
"Andros Town","ASD",24.698283,-77.795611
"Marsh Harbor","MHH",26.511406,-77.083472
"San Andros","SAQ",25.053814,-78.048997
"Spring Point","AXP",22.441828,-73.970858
"Sandy Point","",26.004639,-77.395483
"Treasure Cay","TCB",26.745336,-77.391269
"Chub Cay","CCZ",25.417108,-77.88085
"Bullocks Harbour","",25.738331,-77.840114
"Alice Town","BIM",25.699881,-79.264656
"De Kalb","DKB",41.9338342,-88.7056864
"Great Exuma","GGT",23.562631,-75.877958
"George Town","",23.466667,-75.78167
"North Eleuthera","ELH",25.474861,-76.683489
"Governor's Harbor","GHB",25.284706,-76.331011
"Norman's Cay","",24.594258,-76.820214
"Rock Sound","RSD",24.8917,-76.177739
"Staniel Cay","",24.169083,-76.439056
"Freeport","FPO",26.558686,-78.695553
"Matthew Town","IGA",20.975,-73.666862
"Dead Man's Cay","LGI",23.179014,-75.093597
"Stella Maris","SML",23.581444,-75.270475
"Mayaguana","MYG",22.379528,-73.0135
"Nassau","NAS",25.038958,-77.466231
"Duncan Town","",22.181803,-75.729456
"Port Nelson","",23.684378,-74.836186
"Cockburn Town","ZSA",24.063275,-74.523967
"Belize City","BZE",17.539144,-88.308203
"Aitutaki","AIT",-18.830922,-159.764233
"Avarua","RAR",-21.202739,-159.805556
"Nandi","NAN",-17.755392,177.443378
"Nausori","SUV",-18.043267,178.559228
"Tongatapu","TBU",-21.241214,-175.149644
"Vava'u","VAV",-18.585336,-173.961717
"Tarawa","TRW",1.381636,173.147036
"Tabiteuea North","TBF",-1.224469,174.775614
"Maitland","MTL",-32.7033,151.488
"Wallis","WLS",-13.238281,-176.199228
"Faleolo","APW",-13.829969,-172.008336
"Pago Pago","PPG",-14.331,-170.7105
"Rurutu","RUR",-22.434069,-151.360614
"Tubuai","TUB",-23.365353,-149.524072
"Anaa","AAA",-17.352606,-145.509956
"Fangatau","",-15.819928,-140.88715
"Tikehau","TIH",-15.119617,-148.230697
"Reao","REA",-18.465861,-136.439706
"Fakarava","FAV",-16.05415,-145.656994
"Manihi","XMH",-14.436764,-146.070056
"Totegegie","GMR",-23.079861,-134.890333
"Kaukura Atoll","KKR",-15.663333,-146.884769
"Makemo","MKP",-16.583919,-143.658369
"Puka Puka","PKP",-14.809458,-138.812811
"Takapoto","TKP",-14.709544,-145.245814
"Arutua","AXR",-15.248289,-146.616708
"Mataiva","MVT",-14.868055,-148.717225
"Takaroa","TKX",-14.455781,-145.024542
"Nuku Hiva","NHV",-8.795603,-140.228789
"Lafayette","LAF",40.4123056,-86.9368889
"Bora Bora","BOB",-16.444378,-151.751286
"Rangiroa","RGI",-14.954283,-147.6608
"Huahine Island","HUH",-16.687242,-151.021667
"Moorea","MOZ",-17.489972,-149.761869
"Hao Island","HOI",-18.074814,-140.945886
"Maupiti","MAU",-16.426486,-152.243669
"Raiatea Island","RFP",-16.722861,-151.465856
"Port-vila","VLI",-17.699325,168.319794
"Kone","KNQ",-21.053428,164.837806
"Koumac","KOC",-20.546314,164.255625
"Lifou","LIF",-20.7748,167.239864
"Noumea","GEA",-22.258278,166.472806
"Mare","MEE",-21.481678,168.037508
"Touho","TOU",-20.790028,165.259486
"Ouvea","UVE",-20.640556,166.572778
"Noumea","NOU",-22.014553,166.212972
"Auckland","AKL",-37.008056,174.791667
"Taupo","TUO",-38.739723,176.084444
"Ardmore","AMZ",-37.029722,174.973333
"Christchurch","CHC",-43.489358,172.532225
"Chatham Island","CHT",-43.81,-176.457222
"Dunedin","DUD",-45.928055,170.198333
"Gisborne","GIS",-38.663333,177.978333
"Glentanner","MON",-43.906666,170.128333
"Hokitika","HKK",-42.713611,170.985278
"Hamilton","HLZ",-37.866661,175.332056
"Hastings","",-39.646667,176.766944
"Kerikeri","KKE",-35.262779,173.911944
"Kaitaia","KAT",-35.07,173.285278
"Alexandra","ALR",-45.211666,169.373333
"Mount Cook","GTN",-43.764999,170.133333
"Manapouri","TEU",-45.533056,167.65
"Masterton","MRO",-40.973333,175.633611
"New Plymouth","NPL",-39.008611,174.179167
"Nelson","NSN",-41.298333,173.221111
"Invercargill","IVC",-46.412408,168.312992
"Ohakea","",-40.206039,175.387808
"Oamaru","OAM",-44.97,171.081667
"Palmerston North","PMR",-40.320556,175.616944
"Paraparaumu","PPQ",-40.904722,174.989167
"Queenstown International","ZQN",-45.021111,168.739167
"Rotorua","ROT",-38.109167,176.317222
"Waiouru","",-39.446389,175.658333
"Stephen's Island","",-89.999997,0
"Tauranga","TRG",-37.671944,176.19611
"Timaru","TIU",-44.302778,171.225278
"Pukaki","",-44.235,170.118333
"Woodbourne","BHE",-41.518333,173.870278
"Weydon","",-77.867358,167.056572
"Wanaka","WKA",-44.722222,169.245556
"Wigram","",-43.551111,172.552778
"Whakatane","WHK",-37.920556,176.914167
"Wellington","WLG",-41.327221,174.805278
"Wairoa","",-39.006944,177.406667
"Whenuapai","",-36.787777,174.630278
"Whangarei","WRE",-35.768333,174.365
"Westport","WSZ",-41.738056,171.580833
"Wanganui","WAG",-39.962222,175.025278
"Herat","HEA",34.210017,62.2283
"Jalalabad","JAA",34.399842,70.498625
"Kabul","KBL",34.565853,69.212328
"Kandahar","KDH",31.505756,65.847822
"Maimama","MMZ",35.930789,64.760917
"Mazar-i-sharif","MZR",36.706914,67.209678
"Shindand","",33.391331,62.260975
"Sheberghan","",36.750783,65.913164
"Kunduz","UND",36.665111,68.910833
"Bahrain","BAH",26.270834,50.63361
"Bahrain","",25.918362,50.590557
"Abha","AHB",18.240367,42.656625
"Al-ahsa","HOF",25.285306,49.485189
"El-baha","ABT",20.296139,41.634277
"Bisha","BHH",19.98435,42.620881
"Abqaiq","",25.911281,49.591231
"Dammam","DMM",26.471161,49.79789
"Dhahran","DHA",26.265417,50.152027
"Gizan","GIZ",16.901111,42.585833
"Gassim","ELQ",26.302822,43.773911
"Guriat","URY",31.411942,37.279469
"Hail","HAS",27.437917,41.686292
"Jubail","",27.039028,49.405083
"Jeddah","",21.3481,39.173033
"Jeddah","JED",21.679564,39.156536
"King Khalid Mil.city","HBT",27.900917,45.528194
"Madinah","MED",24.553422,39.705061
"Nejran","EAM",17.611436,44.419169
"Hafr Al-batin","AQI",28.335192,46.125069
"Petroline 3","",25.174547,47.488431
"Petroline 6","",24.710333,44.964527
"Petroline 10","",24.107339,41.036047
"Rabigh","",22.702608,39.069842
"Rafha","RAH",29.626419,43.490614
"Riyadh","RUH",24.95764,46.698776
"Rash Mishab","",28.079584,48.610973
"Arar","RAE",30.906589,41.138217
"Ras Tanura","",26.723108,50.030814
"Sharurah","SHW",17.466875,47.121431
"Mudgee","DGE",-32.5625,149.611
"Sulayel","SLF",20.464744,45.619644
"Tabuk","TUU",28.365417,36.618889
"Taif","TIF",21.483418,40.544334
"Thumamah","",25.212986,46.640978
"Ras Tanajib","",27.867844,48.76915
"Turaif","TUI",31.692683,38.7312
"Oxford","OXD",39.5022607,-84.7843814
"Wejh","EJH",26.198553,36.476381
"Yenbo","YNB",24.144244,38.06335
"Abadan","ABD",30.371111,48.228333
"Dezful","",32.434444,48.39764
"Aghajari","",30.74445,49.677183
"Gachsaran","",30.337567,50.827964
"Masjed Soleiman","QMJ",32.002372,49.270364
"Omidyeh","",30.835167,49.534916
"Bandar Mahshahr","MRX",30.556192,49.151879
"Ahwaz","AWZ",31.337431,48.76195
"Abumusa I.","",25.875742,55.032994
"Bushehr","BUZ",28.944811,50.834637
"Bastak","",27.212678,54.318592
"Golbandi","",27.481425,52.615483
"Kish Island","KIH",26.526156,53.980211
"Bandar Lengeh","BDH",26.532,54.824847
"Khark Island","",29.260278,50.323889
"Siri Island","",25.908869,54.5394
"Lavan Island","",26.8103,53.356289
"Bakhtaran","KSH",34.345853,47.158128
"Sanandaj","SDG",35.245856,47.009247
"Daran","",32.928889,51.561111
"Esfahan","",32.567039,51.691594
"Kashan","",33.895333,51.577044
"Esfahan","",32.750836,51.861267
"Sepah","",32.621108,51.697017
"Rasht","RAS",37.325314,49.605817
"Muncie","MIE",40.2424722,-85.39575
"Arak","",34.138147,49.847292
"Abe-ali","",35.952097,50.450778
"Kushke Nosrat","",34.98395,50.806219
"Teheran","",35.702983,51.475131
"Abyek","",35.416111,51.152222
"Teheran","",35.644806,51.380695
"Teheran","THR",35.689167,51.313416
"Ghazvin","",36.240061,50.047153
"Khoram Dareh","",35.776286,50.881014
"Bandar Abbas","BND",27.218317,56.37785
"Jiroft","",28.726925,57.670269
"Kerman","KER",30.274444,56.951111
"Bandar Abbas","",27.158251,56.172461
"Gheshm I.","",26.754639,55.902353
"Sirjan","",29.550933,55.672708
"Birjand","XBJ",32.898056,59.266111
"Sarakhs","",36.501178,61.064903
"Emam Shahr","",36.425094,55.104833
"Airlie Beach","WSY",-20.276,148.755
"Tabas","",33.66775,56.892675
"Kalaleh","",37.383272,55.452008
"Ramsar","RZR",36.909908,50.679589
"Rafaela","RAF",-31.282072,-61.501594
"Fasa","",28.891756,53.723339
"Jahrom","",28.586675,53.579144
"Lamerd","",27.372744,53.188794
"Shiraz","SYZ",29.539242,52.589786
"Khoy","",38.427453,44.973575
"Sabadell","QSA",41.5209,2.10508
"Tabriz","TBZ",38.133889,46.235
"Zanjan","",36.77365,48.359422
"Yazd","AZD",31.904908,54.276503
"Zabol","",31.098333,61.543889
"Chah Bahar","ZBR",25.44335,60.382114
"Zahedan","ZAH",29.475686,60.906189
"Iran Shahr","",27.236117,60.720039
"Saravan","",27.419261,62.315789
"Amman","AMM",31.722556,35.993214
"Amman","ADJ",31.972703,35.991569
"Aqaba","AQJ",29.611619,35.018067
"Hotel Four","",32.160747,37.149383
"Jerusalem","",31.864722,35.219167
"Mafraq","OMF",32.356353,36.259181
"Kuwait","KWI",29.226567,47.968928
"Beirut","BEY",33.820931,35.488389
"Kleiat","",34.589333,36.011322
"Abu Dhabi","AUH",24.432972,54.651138
"Abu Dhabi","AZI",24.428333,54.458084
"Al Hamra","",24.073981,52.463644
"Jebel Dhana","",24.187428,52.614
"Myvatn","MVA",65.6558,-16.9181
"Abu Dhabi","",24.248249,54.547722
"Arzana","",24.780528,52.559944
"Das Island","",25.146219,52.873711
"Zirku","",24.861542,53.077833
"Dubai","DXB",25.252778,55.364444
"Fujeirah","FJR",25.112225,56.323964
"Ras Al Khaimah","RKT",25.613483,55.938817
"Sharjah","SHJ",25.328575,55.51715
"Khasab","KHS",26.170986,56.240569
"Masirah","MSH",20.675434,58.890467
"Muscat","MCT",23.593278,58.284444
"Salalah","SLL",17.038719,54.091297
"Thumrait","TTH",17.666,54.024612
"Bhagtanwala","",32.056108,72.9484
"Spray View","",-17.917,25.817
"Lyon","XYD",46,5
"Faisalabad","LYP",31.365014,72.994842
"Gwadar","GWD",25.233308,62.329494
"Gilgit","GIL",35.918786,74.333644
"Jacobsbad","",28.284167,68.449711
"Karachi","KHI",24.906547,67.160797
"Lahore","LHE",31.521564,74.403594
"Lahore","",31.494794,74.346239
"Mangla","",33.050086,73.638381
"Muzaffarabad","MFG",34.339022,73.508639
"Mianwali","",32.563089,71.570681
"Moenjodaro","MJD",27.335156,68.143053
"Karachi","",24.893564,66.938753
"Multan","MUX",30.203222,71.419111
"Nawabshah","WNS",26.219442,68.390053
"Okara","",30.741025,73.357736
"Panjgur","PJG",26.954547,64.132517
"Pasni","PSI",25.290487,63.345083
"Peshawar","PEW",33.993911,71.514581
"Qasim","",33.560153,73.033217
"Quetta","UET",30.251369,66.937764
"Rahim Yar Khan","RYK",28.3839,70.279572
"Islamabad","ISB",33.616653,73.099233
"Risalpur","",34.081112,71.972583
"Rawala Kot","RAZ",33.849658,73.798147
"Point Roberts","1RL",48.9797222,-123.0788889
"Sukkur","SKZ",27.721989,68.791683
"Saidu Sharif","SDT",34.813556,72.352814
"Sui","SUL",28.645142,69.176917
"Talhar","BDN",24.841519,68.838408
"Wana","",32.304664,69.570433
"Zhob","PZH",31.358381,69.463606
"Basrah","BSR",30.549069,47.662142
"Aleppo","ALP",36.180675,37.224358
"Damascus","DAM",33.410636,36.514267
"Deire Zor","DEZ",35.285374,40.175961
"Latakia","LTK",35.401094,35.948681
"Palmyra","PMS",34.557361,38.316889
"Doha","DOH",25.261125,51.565056
"Canton Island","CIS",-2.768122,-171.710394
"Rota","ROP",14.174308,145.242536
"Saipan","SPN",15.119003,145.729356
"Andersen","UAM",13.583953,144.930025
"Agana","GUM",13.48345,144.795983
"West Tinian","TIQ",14.999203,145.61935
"Scone","NSO",-32.0372,150.832
"Majuro","MAJ",7.064758,171.272022
"Kwajalein","",9.396886,167.470869
"Kwajalein","KWA",8.720122,167.731661
"Kiritimati","CXI",1.986161,-157.349778
"Midway","MDY",28.201725,-177.380636
"Chuuk","TKK",7.461869,151.843006
"Pohnpei","PNI",6.9851,158.208989
"Babelthuap","ROR",7.367303,134.544278
"Kosrae","KSA",5.356975,162.958386
"Yap","YAP",9.498911,138.082497
"Kinmen","KNH",24.427892,118.359197
"Pingtung","PIF",22.672367,120.461728
"Longtang","",24.855136,121.237636
"Fengnin","TTT",22.754986,121.101681
"Green Island","GNI",22.673853,121.466481
"Kaohsiung","KHH",22.577094,120.350006
"Chiayi","CYI",23.461779,120.39283
"Lanyu","KYD",22.028842,121.533642
"Taichung","RMQ",24.264668,120.62058
"Cessnock","CES",-32.7875,151.342
"Tainan","TNN",22.950361,120.205778
"Hsinchu","",24.818033,120.939394
"Makung","MZG",23.568669,119.628311
"Taitung","",22.793117,121.181975
"Pingtung","",22.700239,120.482
"Taipei","TSA",25.069722,121.5525
"Taipei","TPE",25.077731,121.232822
"Wang An","WOT",23.370833,119.494444
"Hualien","HUN",24.023725,121.616906
"Tokyo","NRT",35.764722,140.386389
"Matsumoto","MMJ",36.166758,137.922669
"Ibaraki","IBR",36.181083,140.415444
"Minami Tori Shima","",24.289697,153.979119
"Iwojima","IWO",24.784,141.322722
"Nanki-shirahama","SHM",33.662222,135.364444
"Kohnan","",34.590836,133.933225
"Obihiro","OBO",42.733333,143.217222
"Sapporo","CTS",42.7752,141.692283
"Hakodate","HKD",41.77,140.821944
"Chitose","SPK",42.794475,141.666447
"Memanbetsu","MMB",43.880606,144.164053
"Nakashibetsu","SHB",43.5775,144.96
"Tokachi","",42.890544,143.158475
"Wakkanai","WKJ",45.404167,141.800833
"Iki","IKI",33.749027,129.785417
"Yamaguchi","UBJ",33.93,131.278611
"Tsushima","TSJ",34.284889,129.33055
"Monbetsu","MBE",44.303914,143.404028
"Asahikawa","AKJ",43.670833,142.4475
"Okushiri","OIR",42.071667,139.432911
"Rishiri Island","RIS",45.242006,141.186431
"Ashiya","",33.883083,130.653
"Yakushima","KUM",30.385569,130.659017
"Fukue","FUJ",32.666269,128.832808
"Fukuoka","FUK",33.585942,130.450686
"Tanegashima","TNE",30.605067,130.991231
"Kagoshima","KOJ",31.803397,130.719408
"Miyazaki","KMI",31.877222,131.448611
"Nyutabaru","",32.083611,131.451389
"Oita","OIT",33.479444,131.737222
"Kitakyushu","KKJ",33.845942,131.034689
"Kumamoto","KMJ",32.837319,130.85505
"Nagasaki","NGS",32.916944,129.913611
"Kanoya","",31.367608,130.845456
"Tsuiki","",33.685,131.040278
"Amami","ASJ",28.430633,129.712542
"Okierabu","",27.425522,128.700903
"Tokunoshima","TKN",27.836381,128.881253
"Fukui","",36.142847,136.223922
"Gifu","",35.394078,136.869667
"Hamamatsu","",34.750239,137.703083
"Kanazawa","KMQ",36.394611,136.406544
"Oki Island","OKI",36.181125,133.324844
"Toyama","TOY",36.648333,137.1875
"Yaizu","",34.812778,138.298056
"Hiroshima","HIJ",34.436111,132.919444
"Okayama","OKJ",34.756944,133.855278
"Izumo","IZO",35.413611,132.89
"Hofu","",34.034667,131.549194
"Miho","YGJ",35.492222,133.236389
"Iwakuni","",34.14386,132.23575
"Kochi","KCZ",33.546111,133.669444
"Matsuyama","MYJ",33.827222,132.699722
"Osaka","ITM",34.785528,135.438222
"Tottori","TTJ",35.530069,134.166553
"Tokushima","TKS",34.132808,134.606639
"Takamatsu","TAK",34.214167,134.015556
"Osaka","",34.596311,135.602944
"Ozuki","",34.045322,131.052144
"Aomori","AOJ",40.734722,140.690833
"Yamagata","GAJ",38.411894,140.371331
"Sado","",38.060181,138.413928
"Hachinoe","",40.556447,141.466325
"Hanamaki","HNA",39.428611,141.135278
"Akita","AXT",39.615556,140.218611
"Misawa","MSJ",40.703222,141.368364
"Sendai","SDJ",38.139722,140.916944
"Matsushima","",38.404919,141.219572
"Sazena","LKS",50.1929,14.1532
"Atsugi","",35.454611,139.450167
"Tateyama","",34.987053,139.829208
"Hachijojima","HAC",33.115,139.785833
"Iruma","",35.841944,139.410556
"Kisarazu","",35.398272,139.909936
"Shimofusa","",35.798944,140.011111
"Oshima","OIM",34.782033,139.360306
"Zama","",35.513769,139.393675
"Tokyo","HND",35.552258,139.779694
"Yokota","OKO",35.748492,139.348483
"Kwangju","KWJ",35.126389,126.808889
"Jhunju","",35.878436,127.11955
"Yeosu","RSU",34.842328,127.61685
"Sokch'o","SHO",38.142614,128.598556
"Kangnung","KAG",37.753561,128.943625
"Macomb","MQB",40.5200833,-90.6523889
"Cheju","CJU",33.511306,126.493028
"Chinhae","",35.141175,128.695792
"Busan","PUS",35.179528,128.938222
"Bungle Bungle","",-17.5453,128.307
"Ulsan","USN",35.593494,129.351722
"Pyongtaek","",36.962214,127.031072
"Seoul East","SSN",37.445833,127.113889
"Osan","OSN",37.090617,127.029594
"Seoul","GMP",37.558311,126.790586
"Suwon","",37.239406,127.007053
"Pohang","KPO",35.987858,129.420486
"Taegu","TAE",35.894108,128.658856
"Yechon","YEC",36.631933,128.35485
"Okinawa","OKA",26.195814,127.645869
"Iejima","",26.728775,127.761775
"Kadena","DNA",26.355612,127.767633
"Ishigaki","ISG",24.344525,124.186983
"Kumejima","UEO",26.363506,126.713806
"Minami Daito","MMD",25.846533,131.263494
"Miyako","MMY",24.782833,125.295111
"Kitadaito","KTD",25.944722,131.326944
"Shimojishima","SHI",24.826667,125.144722
"Tarama","",24.653889,124.675278
"Yoron","RNJ",27.043964,128.401517
"Futema","",26.274275,127.756494
"Yonaguni Jima","OGN",24.466944,122.977778
"Manila","MNL",14.508647,121.019581
"Mary","MYP",37.6194,61.8967
"Cotabato","CBO",7.165242,124.209619
"Ladag","CGY",8.415619,124.611219
"Pagadian","PAG",7.827197,123.458294
"Romblon","",6.058003,125.096033
"Tsavo East","",-3.070875,39.2194305555556
"Zamboanga","ZAM",6.922419,122.059633
"Baguio","BAG",16.375103,120.619636
"Daet","",14.129167,122.980181
"Floridablanca","",14.986527,120.4925
"Lingayen","",16.034786,120.241106
"San Jose","",12.361517,121.046639
"Lipa","",13.955017,121.124925
"Mamburao","",13.208092,120.60535
"Vigan","",17.555331,120.355797
"Baler","",15.729836,121.500133
"Kimana","",-2.8,37.5333333333333
"Solio","",-0.245167,36.8849
"Kalundborg","",55.7001,11.2549
"Bagabag","",16.619194,121.252319
"Tacloban","TAC",11.227628,125.027758
"Bacolod","BCD",10.642511,122.929617
"Oslo","GEN",60.1939,11.1004
"Dumaguete","DGT",9.333714,123.300472
"Caticlan","",11.924503,121.95405
"Guiuan","",11.035544,125.741594
"Iloilo","ILO",10.713044,122.545297
"Kalibo","KLO",11.679431,122.376294
"Masbate","",10.307542,123.979439
"Wausau","AUW",44.9262845,-89.6270018
"Puerto Princesa","PPS",9.742119,118.758731
"San Jose","SJI",10.766044,121.933439
"Concordia","COC",-31.296944,-57.996631
"Gualeguaychu","GHU",-33.010278,-58.613056
"Junin","",-34.545889,-60.930556
"Parana","PRA",-31.794778,-60.480361
"Rosario","ROS",-32.903611,-60.785
"Santa Fe","SFN",-31.711666,-60.811668
"Buenos Aires","AEP",-34.559175,-58.415606
"Cordoba","COR",-31.323619,-64.207953
"Gobernador Gordillo","",-30.345278,-66.29361
"San Fernando","",-34.453189,-58.589644
"Jose C. Paz","",-34.56065,-58.789564
"La Plata","LPG",-34.972222,-57.894694
"Moron","",-34.676317,-58.642756
"El Palomar","",-34.609939,-58.612592
"Chosmadal","",-37.444692,-70.222469
"Fuerte Gral Roca","",-39.000672,-67.620514
"Mendoza","MDZ",-32.831717,-68.792856
"Malargue","LGS",-35.493597,-69.574267
"San Rafael","AFA",-34.588314,-68.403854
"Catamarca","CTC",-28.593214,-65.750925
"Santiago Del Estero","SDE",-27.765617,-64.310122
"Tinogasta","",-28.03775,-67.580314
"La Rioja","IRJ",-29.381636,-66.795839
"Chilecito","",-29.223888,-67.438889
"Tucuman","TUC",-26.840861,-65.104944
"San Julian","UAQ",-31.571472,-68.418194
"Rio Cuarto","RCU",-33.085128,-64.261314
"Villa Dolores","VDR",-31.945183,-65.146283
"Laboulaye","",-34.135444,-63.36225
"Marcos Juarez","",-32.683639,-62.157792
"Villa Reynolds","",-33.725144,-65.378086
"San Luis","LUQ",-33.273192,-66.356422
"Corrientes","CNQ",-27.445503,-58.761864
"Resistencia","RES",-27.449986,-59.056125
"Formosa","FMA",-26.212722,-58.228111
"Iguazu Falls","IGR",-25.737281,-54.473444
"Paso De Los Libres","AOL",-29.689425,-57.152078
"Monte Caseros","",-30.271922,-57.640231
"Posadas","PSS",-27.385839,-55.970728
"Presidencia R.s.pena","",-26.756519,-60.493103
"Salta","SLA",-24.855978,-65.486169
"Jujuy","JUJ",-24.392778,-65.097778
"Oran","ORA",-23.152779,-64.32917
"La Quiaca","",-22.150556,-65.5775
"Portage","C47",43.5603136,-89.4828607
"El Dorado","",-26.397499,-54.574722
"Goya","",-29.099472,-59.250583
"Obera","",-27.518156,-55.124156
"Reconquista","",-29.210278,-59.68
"Curuzu Cuatia","",-29.770555,-57.978889
"El Bolson","EHL",-41.943189,-71.532289
"Comodoro Rivadavia","CRD",-45.785347,-67.465508
"Esquel","EQS",-42.90795,-71.139472
"Trelew","REL",-43.2105,-65.270319
"Viedma","VDM",-40.869222,-63.000389
"Puerto Madryn","PMY",-42.759161,-65.102725
"Marambio Base","",-64.238335,-56.630833
"Puerto Deseado","PUD",-47.735292,-65.904097
"Rio Grande","RGA",-53.777667,-67.749389
"Rio Gallegos","RGL",-51.608875,-69.312636
"Ushuaia","USH",-54.843278,-68.29575
"San Julian","ULA",-49.306775,-67.802589
"Perito Moreno","PMQ",-46.537911,-70.978689
"Santa Cruz","RZA",-50.01655,-68.579197
"Bahia Blanca","BHI",-38.724967,-62.169317
"Colonel Suarez","",-37.446111,-61.889297
"Olavarria","",-36.890039,-60.216619
"General Pico","",-35.696183,-63.758286
"Tres Arroyos","",-38.386911,-60.329711
"Bolivar","",-36.186594,-61.076367
"Ironwood","IWD",46.5274747,-90.1313967
"Mar Del Plata","MDQ",-37.934167,-57.573333
"Neuquen","NQN",-38.949,-68.155711
"Mackinac Island","MCD",45.8649344,-84.637344
"Pehuajo","",-35.844592,-61.857553
"Santa Rosa","RSA",-36.588322,-64.275694
"San Carlos De Bariloche","BRC",-41.151172,-71.157542
"Tandil","TDL",-37.237392,-59.227922
"Villa Gesell","VLG",-37.235408,-57.029239
"Cutralco","",-38.939683,-69.264642
"San Martin Des Andes","CPC",-40.075383,-71.137294
"Conceicao Do Araguaia","CDJ",-8.348347,-49.301528
"Rio De Janeiro","",-22.875083,-43.384708
"Amapa","",2.077511,-50.858236
"Araracuara","AQA",-21.812,-48.133028
"Aracaju","AJU",-10.984,-37.070333
"Assis","",-22.638564,-50.455914
"Alta Floresta","AFL",-9.866092,-56.106206
"Aracatuba","ARU",-21.141342,-50.424722
"Belem","BEL",-1.37925,-48.476292
"Bage","BGX",-31.390528,-54.112244
"Belo Horizonte","PLU",-19.851181,-43.950628
"Curitiba","BFH",-25.405078,-49.232036
"Barbacena","",-21.267167,-43.761056
"Brasilia","BSB",-15.8711,-47.918625
"Bauru","BAU",-22.345042,-49.0538
"Boa Vista","BVB",2.846311,-60.690069
"Barra Do Garcas","",-15.861344,-52.388894
"Cascavel","CAC",-25.000339,-53.500764
"Itaituba","",-9.333936,-54.965422
"Belo Horizonte","CNF",-19.63375,-43.968856
"Campo Grande","CGR",-20.468667,-54.6725
"Chapeco","XAP",-27.134219,-52.656553
"Carolina","CLN",-7.320444,-47.458667
"Criciuma","CCM",-28.725817,-49.424739
"Porto Alegre","",-29.945944,-51.144367
"Campos","CAW",-21.698333,-41.301669
"Corumba","CMG",-19.011931,-57.673053
"Curitiba","CWB",-25.528475,-49.175775
"Caravelas","CRQ",-17.652283,-39.253069
"Caxias Do Sul","CXJ",-29.197064,-51.187536
"Cuiaba","CGB",-15.652931,-56.116719
"Cruzeiro do Sul","CZS",-7.599906,-72.769489
"President Prudente","PPB",-22.175056,-51.424639
"Manaus","MAO",-3.038611,-60.049721
"Jacare-acanga","",-6.233156,-57.776869
"Sao Pedro Da Aldeia","",-22.812872,-42.092633
"Foz Do Iguacu","IGU",-25.59615,-54.487206
"Florianopolis","FLN",-27.670489,-48.547181
"Fernando Do Noronha","FEN",-3.854928,-32.423336
"Fronteira","",-20.278483,-49.187472
"Alpinopolis","",-20.702817,-46.335264
"Fortaleza","FOR",-3.776283,-38.532556
"Rio De Janeiro","GIG",-22.808903,-43.243647
"Guajara-mirim","",-10.786375,-65.284792
"Goiania","GYN",-16.632033,-49.220686
"Macae","",-21.773683,-48.405078
"Sao Paulo","GRU",-23.432075,-46.469511
"Guaratingueta","",-22.791608,-45.204778
"Altamira","ATM",-3.253906,-52.253978
"Itaituba","",-3.127256,-58.481186
"Itaituba","",-4.242342,-56.000669
"Ilheus","IOS",-14.815964,-39.033197
"Ipatinga","IPN",-19.470722,-42.487583
"Itumbiara","",-18.444661,-49.213361
"Imperatriz","IMP",-5.531292,-47.46005
"Belem","",-1.414158,-48.460739
"Juiz De Fora","JDF",-21.7915,-43.386778
"Joao Pessoa","JPA",-7.148381,-34.950681
"Joinville","JOI",-26.224453,-48.797364
"Campina Grande","CPV",-7.269917,-35.896364
"Campinas","VCP",-23.0075,-47.134444
"Lajes","",-27.782142,-50.281486
"Lins","LIP",-21.664039,-49.730519
"Londrina","LDB",-23.333625,-51.130072
"Bom Jesus Da Lapa","LAZ",-13.262086,-43.408114
"Lagoa Santa","",-19.661611,-43.896403
"Maraba","MAB",-5.368589,-49.138025
"Almeirim","",-0.889839,-52.60225
"Maringa","MGF",-23.476392,-52.016406
"Montes Claros","MOC",-16.706925,-43.8189
"Grand Marais","GRM",47.8383333,-90.3829444
"Manaus","",-3.146042,-59.9863
"Maceio","MCZ",-9.510808,-35.791678
"Macapa","MCP",0.050664,-51.072178
"Mocord","",-5.201919,-37.364347
"Sao Paulo","",-23.509119,-46.637753
"Manicore","MNX",-5.811381,-61.278319
"Navegantes","NVT",-26.879999,-48.65139
"Santo Angelo","GEL",-28.281683,-54.169139
"Natal","NAT",-5.911417,-35.247717
"Oioiapoque","",3.855486,-51.796867
"Porto Alegre","POA",-29.994428,-51.171428
"Parnaiba","",-2.893747,-41.731961
"Pocos De Caldas","POO",-21.843014,-46.567917
"Passo Fundo","PFB",-28.243989,-52.326558
"Pelotas","PET",-31.718353,-52.327689
"Petrolina","PNZ",-9.362411,-40.569097
"Porto Nacional","PNB",-10.719417,-48.399736
"Ponta Pora","PMG",-22.549639,-55.702614
"Porto Velho","PVH",-8.709294,-63.902281
"Valparaiso","NPZ",41.4539722,-87.0070833
"Rio Branco","RBR",-9.583,-67.4836
"Recife","REC",-8.126794,-34.923039
"Rio Grande","RIG",-32.082617,-52.166542
"Rio De Janeiro","SDU",-22.910461,-43.163133
"Ribeirao Preto","RAO",-21.134167,-47.774189
"Rio De Janeiro","STU",-22.93235,-43.719092
"Sao Jose Dos Campos","SJK",-23.228172,-45.862739
"Sao Luis","SLZ",-2.585361,-44.234139
"Sao Paulo","CGH",-23.626692,-46.655375
"Sao Jose Do Rio Preto","SJP",-20.816567,-49.406511
"Santos","SSZ",-23.925206,-46.2875
"Salvador","SSA",-12.910994,-38.331044
"Oriximina","TMT",-1.4896,-56.396803
"Teresina","THE",-5.059942,-42.823478
"Tefe","TFF",-3.382944,-64.724056
"Tarauaca","",-8.155256,-70.783269
"Telemaco Borba","",-24.317775,-50.651592
"Obidos Tirios","",2.223472,-55.946056
"Tabatinga","TBT",-4.255669,-69.935828
"Tucurui","TUR",-3.786008,-49.720267
"Sao Gabriel","",-0.148419,-66.985589
"Paulo Alfonso","PAV",-9.400878,-38.250575
"Uruguaiana","URG",-29.782178,-57.038189
"Uberlandia","UDI",-18.882844,-48.225594
"Castilho","",-20.777067,-51.564761
"Uberaba","UBA",-19.765,-47.964778
"Varginha","VAG",-21.590067,-45.473342
"Vilhena","BVH",-12.694375,-60.098269
"Vitoria","VIX",-20.258056,-40.286389
"Iauarete","",0.6075,-69.185837
"Piracununga","QPS",-21.984561,-47.334764
"Arica","ARI",-18.348531,-70.338742
"Balmaceda","BBA",-45.916058,-71.689475
"Santiago","",-33.5618,-70.6884
"Chile Chico","CCH",-46.583341,-71.687405
"Calama","CJC",-22.498175,-68.903575
"Chillan","",-36.582497,-72.031367
"Punta Arenas","PUQ",-53.002642,-70.854586
"Coyhaique","GXQ",-45.594211,-72.106133
"Iquique","IQQ",-20.535222,-70.181275
"Santiago","SCL",-33.392975,-70.785803
"Antofagasta","ANF",-23.444478,-70.4451
"Porvenir","",-53.2537,-70.319228
"Futaleufu","",-43.189167,-71.851112
"Los Angeles","LSQ",-37.401731,-72.425444
"Puerto Williams","",-54.931072,-67.626261
"Concepcion","CCP",-36.77265,-73.063106
"Easter Island","IPC",-27.164792,-109.421831
"Osorno","ZOS",-40.611208,-73.061042
"Vallenar","",-28.596403,-70.755997
"Rancagua","",-34.173694,-70.775694
"Isla Rey Jorge","",-62.190833,-58.986667
"La Serena","LSC",-29.916233,-71.199522
"Santiago","",-33.456278,-70.546667
"Temuco","ZCO",-38.766819,-72.637097
"Puerto Montt","PMC",-41.438886,-73.093953
"Chaiten","WCH",-42.932808,-72.699114
"Valdivia","ZAL",-39.649956,-73.086111
"Ambato","ATF",-1.212067,-78.574636
"Clementia","",-1.706275,-79.378936
"Coca","OCC",-0.462886,-76.986842
"Cuenca","CUE",-2.889467,-78.984397
"Galapagos","GPS",-0.453758,-90.265914
"Guayaquil","GYE",-2.157419,-79.883558
"Gualaquiza","",-3.423214,-78.566994
"Ibarra","",0.338419,-78.136422
"Km-192","",0.184203,-79.391956
"La Julia","",-1.704381,-79.552261
"Latacunga","",-0.906833,-78.615756
"Macara","",-4.378231,-79.941022
"Macas","XMS",-2.299167,-78.12075
"Machala","MCH",-3.268903,-79.961572
"Montalvo","",-2.067014,-76.975742
"Manta","MEC",-0.946078,-80.678808
"Maragrosa","",-2.851097,-79.803619
"Pasaje","",-3.319667,-79.769165
"Portoviejo","PVO",-1.041647,-80.472206
"Quevedo","",-0.9894,-79.465114
"Quito","UIO",-0.141144,-78.488214
"Riobamba","",-1.653433,-78.656142
"Santa Rosa","",-3.435161,-79.977817
"Salinas","SNC",-2.204994,-80.988878
"Santo Domingo","",-0.248222,-79.214447
"Taura","",-2.261036,-79.680169
"Tena","",-0.986767,-77.819447
"Tarapoa","TPC",-0.122956,-76.33775
"Tulcan","TUA",0.809506,-77.708056
"Silverton","",37.812545,-107.662994
"Asuncion","ASU",-25.23985,-57.519133
"Ayolas","",-27.37065,-56.853944
"Conception","",-23.44175,-57.427122
"Itaipu","",-25.407853,-54.619417
"Mariscal Estigarribia","",-22.044986,-60.621694
"Pilar","",-26.881467,-58.318036
"Armenia","AXM",4.452775,-75.766447
"Puerto Asis","PUU",0.505228,-76.500836
"El Banco","",9.045542,-73.974931
"Bucaramanga","BGA",7.1265,-73.184778
"Bogota","BOG",4.701594,-74.146947
"Barranquilla","BAQ",10.889589,-74.780819
"Bahia Solano","BSC",6.202917,-77.394675
"Buenaventura","BUN",3.819628,-76.989767
"Cucuta","CUC",7.927567,-72.511547
"Cartagena","CTG",10.442381,-75.512961
"Cali","CLO",3.543222,-76.381583
"Tumaco","TCO",1.814417,-78.749228
"Corozal","CZU",9.332742,-75.285594
"Barrancabermeja","EJA",7.024331,-73.8068
"Florencia","FLA",1.589189,-75.564372
"Girardot","",4.276242,-74.796692
"McCarthy","MXY",61.4370608,-142.90307372
"Guapi","GPI",2.570133,-77.8986
"Guaymaral","",4.812333,-74.064919
"Ibague","IBE",4.421608,-75.1333
"Ipiales","IPI",0.861925,-77.671764
"Carepa","",7.811956,-76.716428
"La Mina","",11.232528,-72.490139
"Leticia","LET",-4.193549,-69.943163
"Medellin","EOH",6.219958,-75.590519
"Magangue","MGN",9.284739,-74.846092
"Monteria","MTR",8.823744,-75.825831
"Mitu","MVP",1.253664,-70.233878
"Manizales","MZL",5.029597,-75.464708
"Neiva","NVA",2.95015,-75.294
"Ocana","OCV",8.315061,-73.358331
"Otu","OTU",7.010369,-74.715497
"Puerto Bolivar","",12.221483,-71.984817
"Puerto Carreno","PCR",6.184717,-67.493164
"Pereira","PEI",4.812675,-75.739519
"Pitalito","",1.857769,-76.085719
"Popayan","PPN",2.4544,-76.609319
"Pasto","PSO",1.396247,-77.291478
"Providencia","PVA",13.356944,-81.35833
"Mariquita","",5.212556,-74.883647
"Rio Negro","MDE",6.164536,-75.423119
"Rio Hacha","RCH",11.526222,-72.925958
"San Jose Del Guaviare","SJE",2.579694,-72.639358
"Santa Marta","SMR",11.11965,-74.230647
"San Andres Island","ADZ",12.583594,-81.711192
"San Vincente De Caguan","SVI",2.152175,-74.76635
"Tame","TME",6.451081,-71.760261
"Arauca","AUC",7.068881,-70.736925
"Quibdo","UIB",5.690758,-76.641181
"Tulua","ULQ",4.088358,-76.235133
"Valledupar","VUP",10.435042,-73.249506
"Villavicencio","VVC",4.167875,-73.613761
"Bermejo","BJO",-22.773336,-64.312881
"Cochabamba","CBB",-17.421058,-66.177114
"Chapacura","",-16.990019,-65.141533
"Cobija","CIJ",-11.040436,-68.782972
"La Paz","LPB",-16.513339,-68.192256
"Oruro","",-17.962589,-67.076236
"Potosi","POI",-19.543069,-65.723706
"Puerto Suarez","PSZ",-18.975281,-57.820586
"Santa Ana","",-13.762208,-65.435158
"Sucre","SRE",-19.007083,-65.288747
"Tarija","TJA",-21.555736,-64.701325
"Trinidad","TDD",-14.818739,-64.918019
"Villa Montes","",-21.255231,-63.405611
"Santa Cruz","VVI",-17.644756,-63.135364
"Yacuiba","BYC",-21.960925,-63.651669
"Zandery","PBM",5.452831,-55.187783
"Cayenne","CAY",4.819808,-52.360447
"St.-georges Oyapock","",3.8976,-51.804083
"Huancabamba","",-5.256767,-79.442856
"Andoas","",-2.796128,-76.466617
"Atalaya","",-10.729117,-73.766503
"Seward","SWD",60.1269383,-149.4188122
"Iberia","",-11.411578,-69.488711
"Pucallpa","PCL",-8.377939,-74.574297
"Chimbote","CHM",-9.149614,-78.52385
"Puerto Esperanza","",-9.768131,-70.706456
"Moquegua","",-17.178961,-70.930803
"Chiclayo","CIX",-6.787475,-79.828097
"Ayacucho","AYP",-13.154819,-74.204417
"Andahuaylas","ANS",-13.706408,-73.350378
"Anta","ATA",-9.347444,-77.598392
"Lima","LIM",-12.021889,-77.114319
"Juanjui","JJI",-7.1691,-76.728561
"Jauja","",-11.783144,-75.473394
"Juliaca","JUL",-15.467103,-70.158169
"Michigan City","MGC",41.7033,-86.8211
"Ilo","",-17.695036,-71.343964
"Las Palmas","",-12.160708,-76.998942
"Tumbes","TBP",-3.552528,-80.381356
"Yurimaguas","YMS",-5.893772,-76.118211
"Collique","",-11.9287,-77.061139
"Chachapoyas","CHH",-6.201806,-77.856064
"Iquitos","IQT",-3.784739,-73.308806
"Arequipa","AQP",-16.341072,-71.583083
"San Ramon","",-11.128639,-75.3505
"Trujillo","TRU",-8.081411,-79.108761
"Pisco","PIO",-13.744864,-76.220284
"Tarapoto","TPP",-6.508742,-76.373247
"Tacna","TCQ",-18.053333,-70.275833
